State Name,District Name,Subdistrict Name,Facility Type,Facility Name,Facility Address,Latitude,Longitude,ActiveFlag_C,Location Type,Type Of Facility
Odisha,Malkangiri,Kalimela,chc,Kalimela,,18.07243,81.75151,Y,Rural,Public
Odisha,Malkangiri,Korukunda,chc,Chitrakonda,,18.11,82.11,Y,Rural,Public
Odisha,Malkangiri,Podia,chc,Podia,,18.17412,81.54366,Y,Rural,Public
Odisha,Malkangiri,Korukunda,chc,Korukonda,,18.27866,81.98146,Y,Rural,Public
Odisha,Malkangiri,Kudumulugumma,chc,Kudumuluguma,,18.37251,82.18591,Y,Rural,Public
Odisha,Malkangiri,Malkangiri,chc,Pandripani,,18.43372,82.0153,Y,Rural,Public
Odisha,Malkangiri,Khairput,chc,Khairput,,18.48,82.22,Y,Rural,Public
Odisha,Malkangiri,Mathili,chc,Mathili,,18.54,82.2,Y,Rural,Public
Odisha,Koraput,Similiguda,chc,CHC Sunabeda,,18.5472,82.7932,Y,Urban,Public
Odisha,Koraput,Lamptaput,chc,Lamtaput,,18.55053,82.48182,Y,Rural,Public
Odisha,Koraput,Pottangi,chc,Pottangi,,18.55894,82.97139,Y,Rural,Public
Odisha,Koraput,Nandapur,chc,Nandapur,,18.56297,82.7402,Y,Rural,Public
Odisha,Koraput,Similiguda,chc,Kunduli,,18.59874,82.89643,Y,Rural,Public
Odisha,Koraput,Boipariguda,chc,Boipariguda,,18.75051,82.43228,Y,Rural,Public
Odisha,Koraput,Koraput,chc,Mathalput,,18.76449,82.9229,Y,Rural,Public
Odisha,Gajapati,Gosani,chc,Gurandi,,18.81861,84.22362,Y,Rural,Public
Odisha,Gajapati,Kasinagar,chc,Kashinagar,,18.85097,83.87415,Y,Rural,Public
Odisha,Koraput,Narayanpatna,chc,Narayanpatna,,18.87591,83.17459,Y,Rural,Public
Odisha,Koraput,Kundra,chc,Kundura,,18.91985,82.38064,Y,Rural,Public
Odisha,Koraput,Bandhugaon,chc,Bandhugaon,,18.93736,83.24871,Y,Rural,Public
Odisha,Koraput,Jeypore,chc,Rabanaguda,,18.95742,82.55618,Y,Rural,Public
Odisha,Gajapati,Rayagada,chc,Rayagada,,18.97188,84.15264,Y,Rural,Public
Odisha,Gajapati,Gumma,chc,Gumma,,18.9826,84.02479,Y,Rural,Public
Odisha,Koraput,Laxmipur,chc,Laxmipur,,18.98626,83.11707,Y,Rural,Public
Odisha,Koraput,Dasamanthpur,chc,Podagoda,,19.01611,82.84777,Y,Rural,Public
Odisha,Rayagada,Gunupur,chc,Jagannathpur,,19.02655,83.77415,Y,Rural,Public
Odisha,Rayagada,Rayagada,chc,Jemadeipentho,,19.03316,83.4322,Y,Rural,Public
Odisha,Koraput,Dasamanthpur,chc,Dasmanthpur,,19.0413,82.91357,Y,Rural,Public
Odisha,Koraput,Boriguma,chc,Boriguma,,19.04502,82.55587,Y,Rural,Public
Odisha,Gajapati,Nuagada,chc,B K Pada,,19.05984,84.09475,Y,Rural,Public
Odisha,Ganjam,Patrapur,chc,Patrapur,,19.13076,84.57573,Y,Rural,Public
Odisha,Koraput,Kotpad,chc,Kotpad,,19.13483,82.32033,Y,Rural,Public
Odisha,Ganjam,Chikiti,chc,Girisola,,19.16121,84.71587,Y,Rural,Public
Odisha,Gajapati,R. Udayagiri,chc,R Udayagiri,,19.16243,84.1458,Y,Rural,Public
Odisha,Ganjam,Chikiti,chc,Chikiti,,19.20039,84.61992,Y,Rural,Public
Odisha,Nabarangapur,Nawarangapur,chc,Sanamasigam,,19.21118,82.45084,Y,Rural,Public
Odisha,Ganjam,Rangeilunda,chc,Keluapalli,,19.21239,84.81959,Y,Rural,Public
Odisha,Nabarangapur,Nandahandi,chc,Nandahandi,,19.2141,82.64247,Y,Rural,Public
Odisha,Rayagada,Ramanaguda,chc,Ramanaguda,,19.22029,83.67438,Y,Rural,Public
Odisha,Rayagada,Padmapur,chc,Padmapur,,19.23443,83.82153,Y,Rural,Public
Odisha,Rayagada,Kolnora,chc,Kolnora,,19.2481,83.46051,Y,Rural,Public
Odisha,Nabarangapur,Kosagumuda,chc,Kosagumuda,,19.27443,82.24438,Y,Rural,Public
Odisha,Ganjam,Digapahandi,chc,Bomkei,,19.28471,84.53796,Y,Rural,Public
Odisha,Nabarangapur,Tentulikhunti,chc,Tentulikhunti,,19.29289,82.72626,Y,Rural,Public
Odisha,Gajapati,Mohana,chc,CHANDAGIRI,,19.30205,84.28598,Y,Rural,Public
Odisha,Nabarangapur,Papadahandi,chc,Papadahandi,,19.33977,82.51786,Y,Rural,Public
Odisha,Rayagada,Gudari,chc,Gudari,,19.34425,83.78601,Y,Rural,Public
Odisha,Rayagada,Kashipur,chc,Kashipur,,19.35396,83.12696,Y,Rural,Public
Odisha,Ganjam,Digapahandi,chc,Digapahandi,,19.37172,84.5661,Y,Rural,Public
Odisha,Ganjam,Kukudakhandi,chc,Kukudakhandi,,19.40039,84.75173,Y,Rural,Public
Odisha,Ganjam,Hinjilicut,chc,Bellagam,,19.42994,84.8232,Y,Rural,Public
Odisha,Ganjam,Chhatrapur,chc,Municipentho,,19.43382,84.99229,Y,Rural,Public
Odisha,Ganjam,Purusottampur,chc,Bhatakumarada,,19.43603,84.87576,Y,Rural,Public
Odisha,Gajapati,Mohana,chc,Mohana,,19.43977,84.26071,Y,Rural,Public
Odisha,Ganjam,Sanakhemundi,chc,Adapada,,19.45202,84.64377,Y,Rural,Public
Odisha,Nabarangapur,Dabugaon,chc,Dabugaon,,19.45383,82.414,Y,Rural,Public
Odisha,Kalahandi,Jaipatna,chc,Jaipatna,,19.46859,82.81027,Y,Rural,Public
Odisha,Ganjam,Ganjam,chc,Khandadeuli,,19.48351,85.01366,Y,Rural,Public
Odisha,Ganjam,Hinjilicut,chc,Hinjilicut,,19.48364,84.7394,Y,Rural,Public
Odisha,Rayagada,Kalyansingpur,chc,Kalyansingpur,,19.50673,83.31315,Y,Rural,Public
Odisha,Ganjam,Sheragada,chc,Shearagada,,19.51091,84.6068,Y,Rural,Public
Odisha,Rayagada,Bissamcuttack,chc,Bissamcuttack,,19.5163,83.50848,Y,Rural,Public
Odisha,Ganjam,Purusottampur,chc,PURUSOTTAMPUR,,19.51993,84.88211,Y,Rural,Public
Odisha,Kalahandi,Th. Rampur,chc,Thuamul Rampur,,19.54512,82.93883,Y,Rural,Public
Odisha,Ganjam,Kavi Surya Nagar,chc,Kabi Surya Nagar,,19.58105,84.75483,Y,Rural,Public
Odisha,Rayagada,Chandrapur,chc,Chandrapur,,19.59802,83.88011,Y,Rural,Public
Odisha,Ganjam,Aska,chc,Aska,,19.60858,84.67028,Y,Rural,Public
Odisha,Ganjam,Khallikote,chc,Khalikote,,19.60901,85.09047,Y,Rural,Public
Odisha,Kalahandi,Kalampur,chc,Kalampur,,19.61431,82.88425,Y,Rural,Public
Odisha,Ganjam,Beguniapada,chc,Kodala,,19.6304,84.93996,Y,Rural,Public
Odisha,Rayagada,Muniguda,chc,Muniguda,,19.63054,83.48476,Y,Rural,Public
Odisha,Puri,Krushnaprasad,chc,Krushna Prasad,,19.63488,85.26502,Y,Rural,Public
Odisha,Ganjam,Dharakote,chc,Dharakote,,19.64226,84.57381,Y,Rural,Public
Odisha,Ganjam,Sorada,chc,Badagada,,19.64569,84.41444,Y,Rural,Public
Odisha,Nabarangapur,Umerkote,chc,Umarkote,,19.6578,82.21765,Y,Rural,Public
Odisha,Puri,Krushnaprasad,chc,Chilka Nuapada,,19.66357,85.38094,Y,Rural,Public
Odisha,Kalahandi,Koksara,chc,Koksara,,19.66806,82.70196,Y,Rural,Public
Odisha,Ganjam,Aska,chc,Balisira,,19.69735,84.63779,Y,Rural,Public
Odisha,Ganjam,Polsara,chc,Polosara,,19.69736,84.81265,Y,Rural,Public
Odisha,Ganjam,Beguniapada,chc,Sumandal,,19.70904,85.0373,Y,Rural,Public
Odisha,Kalahandi,Lanjigarh,chc,Lanjigarh,,19.71219,83.36369,Y,Rural,Public
Odisha,Nabarangapur,Jharigaon,chc,Jharigam,,19.7128,82.37128,Y,Rural,Public
Odisha,Ganjam,Sorada,chc,Surada,,19.7269,84.43866,Y,Rural,Public
Odisha,Kalahandi,Junagarh,chc,Chiliguda,,19.7307,82.90639,Y,Rural,Public
Odisha,Nabarangapur,Umerkote,chc,Pujariguda,,19.73205,82.20373,Y,Rural,Public
Odisha,Khordha,Chilika,chc,Balugaon,,19.7427,85.20785,Y,Rural,Public
Odisha,Khordha,Banpur,chc,Banapur,,19.78155,85.17546,Y,Rural,Public
Odisha,Puri,Brahmagiri,chc,Rebana Nuagaon,,19.80092,85.69789,Y,Rural,Public
Odisha,Kalahandi,Dharmagarh,chc,Parla,,19.80566,82.70417,Y,Rural,Public
Odisha,Ganjam,Buguda,chc,Buguda,,19.81302,84.78758,Y,Rural,Public
Odisha,Kalahandi,Lanjigarh,chc,Biswanathpur,,19.82498,83.42908,Y,Rural,Public
Odisha,Kandhamal,Kotagarh,chc,Subarnagiri,,19.83027,83.86006,Y,Rural,Public
Odisha,Ganjam,Belguntha,chc,Gobara,,19.83032,84.60093,Y,Rural,Public
Odisha,Nabarangapur,Chandahandi,chc,Chandahandi,,19.84559,82.49473,Y,Rural,Public
Odisha,Khordha,Banpur,chc,Gambharimunda,,19.8466,85.21565,Y,Rural,Public
Odisha,Kalahandi,Junagarh,chc,Junagarh,,19.86042,82.93783,Y,Rural,Public
Odisha,Ganjam,Belguntha,chc,Bellaguntha,,19.87751,84.63847,Y,Rural,Public
Odisha,Puri,Puri,chc,Chandanpur,,19.88729,85.81898,Y,Rural,Public
Odisha,Kandhamal,Daringibadi,chc,Daringbadi,,19.90701,84.12549,Y,Rural,Public
Odisha,Khordha,Tangi,chc,Tangi,,19.92291,85.39737,Y,Rural,Public
Odisha,Puri,Kakatpur,chc,Bangurigaon,,19.93571,86.19395,Y,Rural,Public
Odisha,Puri,Satyabadi,chc,Sakhigopal,,19.94548,85.82049,Y,Rural,Public
Odisha,Puri,Satyabadi,chc,Algum,,19.95062,85.7472,Y,Rural,Public
Odisha,Kandhamal,Tumudibandha,chc,Tumudibandha,,19.96914,83.70759,Y,Rural,Public
Odisha,Ganjam,Jagannath prasad,chc,Jaganath Prasad,,19.97243,84.78262,Y,Rural,Public
Odisha,Puri,Astaranga,chc,Astaranga,,19.9761,86.27152,Y,Rural,Public
Odisha,Puri,Gop,chc,Gop,,19.98479,86.02047,Y,Rural,Public
Odisha,Puri,Kanas,chc,Kanas,,20.00382,85.65072,Y,Rural,Public
Odisha,Nabarangapur,Raighar,chc,Hatabharandi,,20.01513,81.91457,Y,Rural,Public
Odisha,Nayagarh,Odagaon,chc,Odagaon,,20.01716,84.97991,Y,Rural,Public
Odisha,Kalahandi,Kesinga,chc,Pastikudi,,20.02065,83.17738,Y,Rural,Public
Odisha,Nayagarh,Odagaon,chc,Sarankul,,20.02694,85.08462,Y,Rural,Public
Odisha,Puri,Nimapara,chc,Nimapada,,20.04956,86.00712,Y,Rural,Public
Odisha,Kalahandi,Narla,chc,Narla,,20.05932,83.38963,Y,Rural,Public
Odisha,Kandhamal,Raikia,chc,Raikia,,20.05958,84.23843,Y,Rural,Public
Odisha,Puri,Delanga,chc,Delanga,,20.06026,85.74628,Y,Rural,Public
Odisha,Nayagarh,Ranapur,chc,Ranpur,,20.06108,85.34742,Y,Rural,Public
Odisha,Puri,Nimapara,chc,Charichhak,,20.06399,85.99289,Y,Rural,Public
Odisha,Khordha,Begunia,chc,Botalama,,20.08888,85.4299,Y,Rural,Public
Odisha,Kalahandi,Golamunda,chc,Chapuria,,20.09112,82.86715,Y,Rural,Public
Odisha,Ganjam,Bhanjanagar,chc,Gallery,,20.09472,84.56743,Y,Rural,Public
Odisha,Nuapada,Sinapali,chc,Sinapali,,20.09852,82.64098,Y,Rural,Public
Odisha,Jagatsinghpur,Naugaon,chc,Naugaon,,20.1034,86.18935,Y,Rural,Public
Odisha,Puri,Pipili,chc,Pipli,,20.10713,85.83662,Y,Rural,Public
Odisha,Kandhamal,G. Udayagiri,chc,G.Udayagari,,20.10942,84.36831,Y,Rural,Public
Odisha,Puri,Pipili,chc,Panidol,,20.11891,85.78378,Y,Rural,Public
Odisha,Kandhamal,K Nuagaon,chc,K. Nuagaon,,20.13698,84.01454,Y,Rural,Public
Odisha,Kandhamal,G. Udayagiri,chc,Gressingia,,20.13734,84.34637,Y,Rural,Public
Odisha,Cuttack,Niali,chc,Niali,,20.13949,86.06837,Y,Rural,Public
Odisha,Jagatsinghpur,Balikuda,chc,Balikuda,,20.14279,86.27273,Y,Rural,Public
Odisha,Nayagarh,Nayagarh,chc,Badapandusar,,20.15178,85.17867,Y,Rural,Public
Odisha,Khordha,Jatani,chc,Jatani,,20.15234,85.70319,Y,Urban,Public
Odisha,Kalahandi,Bhawanipatna,chc,Borda,,20.15841,82.98493,Y,Rural,Public
Odisha,Nayagarh,Nuagaon,chc,Mahipur,,20.16401,84.99457,Y,Rural,Public
Odisha,Nayagarh,Ranapur,chc,Rajsunakhala,,20.16663,85.33291,Y,Rural,Public
Odisha,Khordha,Bolgarh,chc,Bolagarh,,20.17294,85.28005,Y,Rural,Public
Odisha,Puri,Pipili,chc,Managalpur,,20.17398,85.88529,Y,Rural,Public
Odisha,Kalahandi,Kesinga,chc,Kesinga,,20.18677,83.22318,Y,Rural,Public
Odisha,Kalahandi,M. Rampur,chc,Madanpur Rampur,,20.19216,83.51945,Y,Rural,Public
Odisha,Khordha,Balianta,chc,Balakati,,20.2012,85.87731,Y,Rural,Public
Odisha,Jagatsinghpur,Ersama,chc,Ersama,,20.20137,86.40738,Y,Rural,Public
Odisha,Khordha,Balipatna,chc,Balipatna,,20.20309,85.96186,Y,Rural,Public
Odisha,Khordha,Bolgarh,chc,Bankoi,,20.21525,85.3451,Y,Rural,Public
Odisha,Cuttack,KANTAPADA,chc,Adaspur,,20.21858,86.01385,Y,Rural,Public
Odisha,Kandhamal,K Nuagaon,chc,Sarangarh,,20.2248,84.13042,Y,Rural,Public
Odisha,Balangir,Bangomunda,chc,Sindhekela,,20.22743,82.93592,Y,Rural,Public
Odisha,Balangir,Titilagarh,chc,Kholan,,20.22982,83.08546,Y,Rural,Public
Odisha,Kandhamal,Tikabali,chc,Tikabali,,20.24016,84.3507,Y,Rural,Public
Odisha,Kandhamal,Baliguda,chc,Barakhama,,20.24078,83.83644,Y,Rural,Public
Odisha,Nuapada,Boden,chc,Boden,,20.24916,82.57058,Y,Rural,Public
Odisha,Nayagarh,Khandapada,chc,Khandapada,,20.26484,85.17154,Y,Rural,Public
Odisha,Jagatsinghpur,Kujanga,chc,Paradeep CHC,,20.26743,86.65297,Y,Urban,Public
Odisha,Khordha,Bhubaneswar,chc,Unit 4 Hospital,,20.26781,85.83647,Y,Urban,Public
Odisha,Khordha,Bhubaneswar,chc,Mendhasala,,20.27099,85.70114,Y,Rural,Public
Odisha,Jagatsinghpur,Jagatsinghpur,chc,Mandasahi,,20.27542,86.10931,Y,Rural,Public
Odisha,Khordha,Khurda,chc,Haladia,,20.2779,85.57493,Y,Rural,Public
Odisha,Nayagarh,Bhapur,chc,Bhapur,,20.28395,85.29156,Y,Rural,Public
Odisha,Nuapada,Khariar,chc,Khariar,,20.29494,82.75804,Y,Rural,Public
Odisha,Jagatsinghpur,Tirtol,chc,Manijanga,,20.30514,86.37892,Y,Rural,Public
Odisha,Kandhamal,Chakapada,chc,Brahmanpad,,20.31054,84.47914,Y,Rural,Public
Odisha,Nayagarh,Khandapada,chc,Nuagadiasahi,,20.31268,85.22633,Y,Rural,Public
Odisha,Jagatsinghpur,Kujanga,chc,Kunjanga,,20.31955,86.52682,Y,Rural,Public
Odisha,Nayagarh,Dasapalla,chc,Dasapalla,,20.33132,84.84882,Y,Rural,Public
Odisha,Nayagarh,Dasapalla,chc,Madhyakhanda,,20.33828,84.92886,Y,Rural,Public
Odisha,Cuttack,Baranga,chc,Mahidharpada,,20.33924,85.92118,Y,Rural,Public
Odisha,Jagatsinghpur,Biridi,chc,Biridi,,20.35721,86.08302,Y,Rural,Public
Odisha,Kandhamal,Phiringia,chc,Phiringia,,20.35791,84.12299,Y,Rural,Public
Odisha,Jagatsinghpur,Raghunathpur,chc,Raghunathpur,,20.36276,86.16055,Y,Rural,Public
Odisha,Kandhamal,Phulbani,chc,Gumagarh,,20.36287,84.26924,Y,Rural,Public
Odisha,Kalahandi,Karlamunda,chc,Karlamunda,,20.36736,83.46979,Y,Rural,Public
Odisha,Cuttack,Dampada,chc,Dompada,,20.38858,85.62711,Y,Rural,Public
Odisha,Balangir,Muribahal,chc,Muribahal,,20.38914,83.01006,Y,Rural,Public
Odisha,Kendrapara,Patkura,chc,Patkura,,20.38961,86.40632,Y,Rural,Public
Odisha,Cuttack,Narsinghapur,chc,Kanpur,,20.40189,85.17948,Y,Rural,Public
Odisha,Nayagarh,Gania,chc,Gania,,20.40199,85.05054,Y,Rural,Public
Odisha,Cuttack,Cuttack,chc,Bentkar,,20.40486,85.94683,Y,Rural,Public
Odisha,Balangir,Gudvela,chc,Gudvela,,20.41347,83.56788,Y,Rural,Public
Odisha,Cuttack,Baramba,chc,Badamba,,20.41737,85.34605,Y,Rural,Public
Odisha,Kendrapara,Marsaghai,chc,Marsaghai,,20.42258,86.47791,Y,Rural,Public
Odisha,Kendrapara,Mahakalapada,chc,Mahakalpada,,20.42347,86.58024,Y,Rural,Public
Odisha,Cuttack,SUBARNAPUR,chc,Subarnapur,,20.43656,85.60597,Y,Rural,Public
Odisha,Cuttack,Baramba,chc,Maniabandh,,20.43659,85.42997,Y,Rural,Public
Odisha,Kandhamal,Khajuripada,chc,Khajuripada,,20.43702,84.40933,Y,Rural,Public
Odisha,Cuttack,Tigiria,chc,Bindhanima,,20.44172,85.49571,Y,Rural,Public
Odisha,Balangir,Saintala,chc,Saintala,,20.44363,83.36145,Y,Rural,Public
Odisha,Cuttack,Narsinghapur,chc,Narsinghpur,,20.45813,85.07803,Y,Rural,Public
Odisha,Cuttack,Tigiria,chc,Tigiria,,20.46786,85.47742,Y,Rural,Public
Odisha,Balangir,Turekela,chc,Kantabanji,,20.46972,82.91973,Y,Rural,Public
Odisha,Cuttack,Salepur,chc,Salipur,,20.47292,86.09849,Y,Rural,Public
Odisha,Cuttack,Nischintakoil,chc,Nischintakoili,,20.47851,86.17989,Y,Rural,Public
Odisha,Cuttack,Athagarh,chc,Berhampur,,20.49142,85.76488,Y,Rural,Public
Odisha,Baudh,Harbhanga,chc,Adenigarh,,20.4955,84.48331,Y,Rural,Public
Odisha,Nuapada,Komna,chc,Komna,,20.50409,82.66927,Y,Rural,Public
Odisha,Balangir,Turekela,chc,Turekela,,20.50447,82.80689,Y,Rural,Public
Odisha,Cuttack,Narsinghapur,chc,Judum,,20.52373,84.96909,Y,Rural,Public
Odisha,Nuapada,Komna,chc,Bhella,,20.52938,82.63511,Y,Rural,Public
Odisha,Cuttack,Tangichoudwar,chc,Tangi,,20.53439,85.92529,Y,Rural,Public
Odisha,Kendrapara,Derabis,chc,Derabish,,20.54216,86.33596,Y,Rural,Public
Odisha,Balangir,Deogaon,chc,Deogaon,,20.54496,83.42344,Y,Rural,Public
Odisha,Cuttack,Mahanga,chc,Mahanga,,20.55707,86.20087,Y,Rural,Public
Odisha,Kendrapara,Rajnagar,chc,Rajnagar,,20.57187,86.71792,Y,Rural,Public
Odisha,Kendrapara,Pattamundai,chc,Pattamundai,,20.57886,86.5619,Y,Rural,Public
Odisha,Balangir,Belpara,chc,Belpara,,20.59089,82.96774,Y,Rural,Public
Odisha,Dhenkanal,Hindol,chc,Khajuria Kata,,20.60497,85.20396,Y,Rural,Public
Odisha,Kendrapara,Kendrapara,chc,Indupur,,20.61589,86.40174,Y,Rural,Public
Odisha,Baudh,Harbhanga,chc,Purunakatak,,20.62699,84.4315,Y,Rural,Public
Odisha,Baudh,Kantamal,chc,Kantamal,,20.6568,83.73805,Y,Rural,Public
Odisha,Jajapur,Barachana,chc,Barachana,,20.669,86.12765,Y,Rural,Public
Odisha,Jajapur,Bari,chc,Bari,,20.68762,86.35188,Y,Rural,Public
Odisha,Kendrapara,Aul,chc,Aali,,20.68765,86.65282,Y,Rural,Public
Odisha,Dhenkanal,Dhenkanal,chc,Beltikiri,,20.69492,85.69339,Y,Rural,Public
Odisha,Balangir,Balangir,chc,Chudapali,,20.71856,83.29494,Y,Rural,Public
Odisha,Jajapur,Binjharpur,chc,Binjharpur,,20.72341,86.40865,Y,Rural,Public
Odisha,Sonapur,Tarva,chc,Tarva,,20.72822,83.67873,Y,Rural,Public
Odisha,Kendrapara,Rajkanika,chc,Rajkanika,,20.73852,86.69878,Y,Rural,Public
Odisha,Anugul,Angul,chc,Bantala,,20.74247,85.06562,Y,Rural,Public
Odisha,Balangir,Khaprakhol,chc,Khaprakhol,,20.75477,82.86086,Y,Rural,Public
Odisha,Dhenkanal,Odapada,chc,Odapada,,20.76504,85.43342,Y,Rural,Public
Odisha,Bhadrak,Chandabali,chc,Chandbali,,20.77346,86.7412,Y,Rural,Public
Odisha,Dhenkanal,Gondia,chc,Sriram Chandra Pur,,20.77449,85.8071,Y,Rural,Public
Odisha,Jajapur,Dharmasala,chc,Dharmasala,,20.77746,86.16504,Y,Rural,Public
Odisha,Jajapur,Jajpur,chc,Markandapur,,20.78339,86.33575,Y,Rural,Public
Odisha,Anugul,Athamallik,chc,MADHAPUR,,20.78354,84.41999,Y,Rural,Public
Odisha,Balangir,Puintala,chc,Jamgaon,,20.79206,83.58727,Y,Rural,Public
Odisha,Dhenkanal,Kamakhyanagar,chc,Analaberini,,20.81045,85.54333,Y,Rural,Public
Odisha,Jajapur,Dasarathpur,chc,Mangalpur,,20.81152,86.51972,Y,Rural,Public
Odisha,Balangir,Patnagarh,chc,Ghasian,,20.81278,83.17975,Y,Rural,Public
Odisha,Baudh,Boudh,chc,Baunsuni,,20.81376,84.07411,Y,Rural,Public
Odisha,Sonapur,Sonepur,chc,Naikenpali,,20.8151,83.6811,Y,Rural,Public
Odisha,Baudh,Kantamal,chc,Manamunda,,20.82196,83.91521,Y,Rural,Public
Odisha,Jajapur,Rasalpur,chc,Madhubana,,20.83156,86.16395,Y,Rural,Public
Odisha,Jajapur,Dasarathpur,chc,Dasarathpur,,20.83185,86.44926,Y,Rural,Public
Odisha,Anugul,Banarapal,chc,BANARPAL,,20.84026,85.21585,Y,Rural,Public
Odisha,Balangir,Loisingha,chc,Loisingha,,20.86006,83.51048,Y,Rural,Public
Odisha,Dhenkanal,Bhuban,chc,Jiral,,20.86384,85.68102,Y,Rural,Public
Odisha,Dhenkanal,Bhuban,chc,Bhuban,,20.88373,85.82959,Y,Rural,Public
Odisha,Nuapada,Nuapada,chc,KhariarRoad,,20.89191,82.50769,Y,Rural,Public
Odisha,Dhenkanal,Bhuban,chc,Mathakar Gola,,20.90047,85.68536,Y,Rural,Public
Odisha,Bhadrak,Dhamnagar,chc,Dhamnagar,,20.90808,86.4531,Y,Rural,Public
Odisha,Dhenkanal,Parjanga,chc,Parjanga,,20.91935,85.31496,Y,Rural,Public
Odisha,Jajapur,Dist Level Facility,chc,Jajpur Road,,20.9469,86.138634,Y,Urban,Public
Odisha,Sonapur,Ullanda,chc,Ullunda,,20.95713,83.88161,Y,Rural,Public
Odisha,Bhadrak,Bhandaripokhari,chc,Bhandaripokhari,,20.96073,86.3718,Y,Rural,Public
Odisha,Jajapur,Danagadi,chc,Danagadi,,20.96537,86.07986,Y,Rural,Public
Odisha,Anugul,Rajkishore Nagar,chc,RAJKISHORENAGAR,,20.96584,84.48604,Y,Rural,Public
Odisha,Jajapur,Sukinda,chc,Sukinda,,20.9681,85.91324,Y,Rural,Public
Odisha,Jajapur,Korei,chc,Korei,,20.96999,86.18684,Y,Rural,Public
Odisha,Bargarh,Gaiselet,chc,Talpali,,20.97428,83.21629,Y,Rural,Public
Odisha,Bhadrak,Tihidi,chc,Tihidi,,20.98652,86.63937,Y,Rural,Public
Odisha,Dhenkanal,Kankadahad,chc,Birasal,,20.99388,85.67733,Y,Rural,Public
Odisha,Balangir,Agalpur,chc,Agalpur,,21.00663,83.40998,Y,Rural,Public
Odisha,Bargarh,Padmapur,chc,JAMLA,,21.00811,83.17863,Y,Rural,Public
Odisha,Anugul,Chhendipada,chc,Kosala,,21.01637,84.92992,Y,Rural,Public
Odisha,Anugul,Talcher,chc,Godibandha,,21.02023,85.17742,Y,Rural,Public
Odisha,Sonapur,Binka,chc,Binka,,21.02471,83.8124,Y,Rural,Public
Odisha,Bargarh,Paikamal,chc,Bukuramunda,,21.03212,82.93497,Y,Rural,Public
Odisha,Sonapur,Dunguripali,chc,Dunguripali,,21.0452,83.55021,Y,Rural,Public
Odisha,Keonjhar,Hatadihi,chc,Salania,,21.08016,86.28049,Y,Rural,Public
Odisha,Bhadrak,Bhadrak,chc,Barpada,,21.08522,86.43128,Y,Rural,Public
Odisha,Anugul,Chhendipada,chc,Chhendipada,,21.08657,84.88687,Y,Rural,Public
Odisha,Anugul,Kaniha,chc,Kaniha,,21.09378,85.04907,Y,Rural,Public
Odisha,Bargarh,Barapali,chc,Agalpur,,21.10118,83.53545,Y,Rural,Public
Odisha,Bargarh,Jharbandha,chc,Dava,,21.1031,82.70213,Y,Rural,Public
Odisha,Sambalpur,Rairakhol,chc,Charmal,,21.10848,84.2154,Y,Rural,Public
Odisha,Keonjhar,Ghasipura,chc,Sainkul,,21.12076,86.12842,Y,Rural,Public
Odisha,Bhadrak,Basudevpur,chc,Basudevpur,,21.12312,86.7429,Y,Rural,Public
Odisha,Baleshwar,Simulia,chc,Simulia,,21.15977,86.58114,Y,Rural,Public
Odisha,Keonjhar,Ghasipura,chc,Kesudurpal,,21.16486,86.01045,Y,Rural,Public
Odisha,Bargarh,Bijepur,chc,Bijepur,,21.19,83.4677,Y,Rural,Public
Odisha,Bargarh,Barapali,chc,Barpali,,21.19105,83.58675,Y,Rural,Public
Odisha,Bargarh,Bheden,chc,Bheden,,21.19654,83.75302,Y,Rural,Public
Odisha,Bhadrak,Bonth,chc,Agarpada,,21.20728,86.36759,Y,Rural,Public
Odisha,Keonjhar,Anandapur,chc,Fakirpur,,21.21646,86.11403,Y,Rural,Public
Odisha,Baleshwar,Soro,chc,Anatapur,,21.22914,86.76051,Y,Rural,Public
Odisha,Sambalpur,Jujomura,chc,Jujomura,,21.23776,84.13375,Y,Rural,Public
Odisha,Sambalpur,Naktideul,chc,Naktideul,,21.25605,84.54399,Y,Rural,Public
Odisha,Anugul,Pallahara,chc,KHAMAR,,21.26844,85.19483,Y,Rural,Public
Odisha,Keonjhar,Harichandanpur,chc,Bhagamunda,,21.27373,85.85773,Y,Rural,Public
Odisha,Baleshwar,Soro,chc,Soro,,21.27879,86.69334,Y,Rural,Public
Odisha,Baleshwar,Khaira,chc,Khaira,,21.28413,86.47052,Y,Rural,Public
Odisha,Bargarh,Sohella,chc,Sohela,,21.29893,83.40501,Y,Rural,Public
Odisha,Baleshwar,Bahanaga,chc,Gopalpur,,21.31857,86.82767,Y,Rural,Public
Odisha,Keonjhar,Harichandanpur,chc,Harichandanpur,,21.34315,85.78982,Y,Rural,Public
Odisha,Baleshwar,Oupada,chc,Iswarpur,,21.34648,86.7204,Y,Rural,Public
Odisha,Deogarh,Riamal,chc,Chhatabar,,21.35451,84.68742,Y,Rural,Public
Odisha,Keonjhar,Telkoi,chc,Telkoi,,21.3663,85.40726,Y,Rural,Public
Odisha,Bargarh,Attabira,chc,Attabira,,21.37218,83.78562,Y,Rural,Public
Odisha,Keonjhar,Ghatgaon,chc,Ghatagaon,,21.39319,85.899,Y,Rural,Public
Odisha,Baleshwar,Bahanaga,chc,Khantapada,,21.39622,86.80725,Y,Rural,Public
Odisha,Bargarh,Bargarh,chc,Katapali,,21.40898,83.61513,Y,Rural,Public
Odisha,Bargarh,Bhatli,chc,Bhatli,,21.47275,83.54221,Y,Rural,Public
Odisha,Bargarh,Attabira,chc,Paharsrigida,,21.4754,83.7668,Y,Rural,Public
Odisha,Deogarh,Barkote,chc,Bamparda,,21.48041,85.08437,Y,Rural,Public
Odisha,Sambalpur,Maneswar,chc,Themera,,21.48109,84.03731,Y,Rural,Public
Odisha,Mayurbhanj,Kaptipada,chc,Kaptipada,,21.51731,86.52776,Y,Rural,Public
Odisha,Mayurbhanj,Thakurmunda,chc,Thakurmunda,,21.52062,86.15777,Y,Rural,Public
Odisha,Baleshwar,Remuna,chc,Remuna,,21.52277,86.88712,Y,Rural,Public
Odisha,Sambalpur,Dhankauda,chc,Hirakud,,21.5266,83.9023,Y,Urban,Public
Odisha,Deogarh,Barkote,chc,Barkote,,21.5358,85.00582,Y,Rural,Public
Odisha,Sambalpur,Dhankauda,chc,Debeipali,,21.53821,84.02666,Y,Rural,Public
Odisha,Baleshwar,Nilagiri,chc,Berhampur,,21.53934,86.653,Y,Rural,Public
Odisha,Deogarh,Tileibani,chc,Tileibani,,21.54663,84.60635,Y,Rural,Public
Odisha,Bargarh,Ambabhona,chc,Bhukta,,21.58454,83.42407,Y,Rural,Public
Odisha,Baleshwar,Baliapal,chc,Patrapur,,21.59655,87.26325,Y,Rural,Public
Odisha,Sambalpur,Jamankira,chc,Fasimal,,21.60196,84.28288,Y,Rural,Public
Odisha,Baleshwar,Balasore,chc,Rupsa,,21.62187,87.01967,Y,Rural,Public
Odisha,Keonjhar,Bansapal,chc,Banspal,,21.6275,85.41817,Y,Rural,Public
Odisha,Keonjhar,Patna,chc,Patna,,21.63728,85.89397,Y,Rural,Public
Odisha,Baleshwar,Baliapal,chc,Baliapal,,21.65208,87.29138,Y,Rural,Public
Odisha,Baleshwar,Basta,chc,Basta,,21.6804,87.07003,Y,Rural,Public
Odisha,Baleshwar,Bhograi,chc,Jaleswarpur,,21.68087,87.4064,Y,Rural,Public
Odisha,Keonjhar,Saharapada,chc,Udyapur,,21.70041,85.85273,Y,Rural,Public
Odisha,Mayurbhanj,Gopabandhunagar,chc,Khunta,,21.70396,86.67797,Y,Rural,Public
Odisha,Sundargarh,Bonai,chc,S Bolanga,,21.71246,84.80283,Y,Rural,Public
Odisha,Keonjhar,Keonjhar,chc,Padampur,,21.72423,85.58954,Y,Rural,Public
Odisha,Sambalpur,Rengali,chc,Laida,,21.72669,84.23518,Y,Rural,Public
Odisha,Mayurbhanj,Barasahi,chc,BADASAHI,,21.72756,86.74467,Y,Rural,Public
Odisha,Mayurbhanj,Betnoti,chc,Betnoti,,21.7371,86.85143,Y,Rural,Public
Odisha,Mayurbhanj,Udala,chc,SRIDAM CHANDRAPUR,,21.74588,86.53341,Y,Rural,Public
Odisha,Baleshwar,Bhograi,chc,Kamarda,,21.75772,87.36629,Y,Rural,Public
Odisha,Jharsuguda,Lakhanpur,chc,Lakhanpur,,21.7654,83.77366,Y,Rural,Public
Odisha,Mayurbhanj,Rasogovindapur,chc,RASGOBINDPUR,,21.78179,87.051,Y,Rural,Public
Odisha,Mayurbhanj,Khunta,chc,Dukura,,21.79137,86.65957,Y,Rural,Public
Odisha,Sambalpur,Kuchinda,chc,Kuntara,,21.79248,84.52218,Y,Rural,Public
Odisha,Baleshwar,Jaleswar,chc,G K Bhatter Hospital,,21.8021,87.22773,Y,Rural,Public
Odisha,Jharsuguda,Kolabira,chc,Kolabira,,21.80494,84.16486,Y,Rural,Public
Odisha,Keonjhar,Jhumpura,chc,Jhumpura,,21.82409,85.56942,Y,Rural,Public
Odisha,Jharsuguda,Jharsuguda,chc,Brajrajnagar,,21.82446,83.93085,Y,Urban,Public
Odisha,Mayurbhanj,Baripada,chc,KRUSHNA CHANDPUR,,21.83704,86.81484,Y,Rural,Public
Odisha,Mayurbhanj,Karanjia,chc,TATO,,21.84403,86.01891,Y,Rural,Public
Odisha,Sundargarh,Gurundia,chc,Gurundia,,21.84756,84.77959,Y,Rural,Public
Odisha,Mayurbhanj,Morada,chc,Kisantandi,,21.85966,86.90205,Y,Rural,Public
Odisha,Baleshwar,Jaleswar,chc,Hatigarh,,21.87108,87.22493,Y,Rural,Public
Odisha,Jharsuguda,Kirimira,chc,Kirmira,,21.87597,84.1779,Y,Rural,Public
Odisha,Jharsuguda,Laikera,chc,Mundrajore,,21.88326,84.25841,Y,Rural,Public
Odisha,Sundargarh,Lahunipada,chc,Lahunipara,,21.88821,84.94182,Y,Rural,Public
Odisha,Jharsuguda,Jharsuguda,chc,Rajpur,,21.88976,83.93427,Y,Rural,Public
Odisha,Sundargarh,Koira,chc,Koida,,21.90701,85.24507,Y,Rural,Public
Odisha,Mayurbhanj,Sukruli,chc,Sukruli,,21.92107,85.86756,Y,Rural,Public
Odisha,Mayurbhanj,Samakhunta,chc,Rangamatia,,21.93155,86.64963,Y,Rural,Public
Odisha,Keonjhar,Champua,chc,Bhanda,,21.93896,85.74517,Y,Rural,Public
Odisha,Sundargarh,Hemgir,chc,Hemgir,,21.94568,83.70394,Y,Rural,Public
Odisha,Mayurbhanj,Jasipur,chc,Jashipur,,21.94787,86.06832,Y,Rural,Public
Odisha,Sundargarh,Tangar Pali,chc,Mangaspur,,21.95171,83.99009,Y,Rural,Public
Odisha,Mayurbhanj,Raruan,chc,Raruan,,21.95813,85.86542,Y,Rural,Public
Odisha,Mayurbhanj,Suliapada,chc,Kostha,,21.97394,86.91135,Y,Rural,Public
Odisha,Sundargarh,Sundargarh,chc,Majhapada,,22.02141,84.19533,Y,Rural,Public
Odisha,Mayurbhanj,Jasipur,chc,Jamukeswar,,22.02296,86.07614,Y,Rural,Public
Odisha,Keonjhar,Joda,chc,Basudevpur,,22.02698,85.51892,Y,Rural,Public
Odisha,Keonjhar,Joda,chc,Joda,,22.02989,85.42966,Y,Rural,Public
Odisha,Sambalpur,Bamra,chc,Govindpur,,22.04549,84.29027,Y,Rural,Public
Odisha,Sundargarh,Lephri Para,chc,Sargipalli,,22.05872,83.92174,Y,Rural,Public
Odisha,Mayurbhanj,Kuliana,chc,Kuliana,,22.06565,86.66416,Y,Rural,Public
Odisha,Mayurbhanj,Bisoi,chc,Manada,,22.08055,86.23916,Y,Rural,Public
Odisha,Mayurbhanj,Kusumi,chc,Badampahar,,22.09112,86.14955,Y,Rural,Public
Odisha,Keonjhar,Joda,chc,Barbil,,22.12143,85.39716,Y,Urban,Public
Odisha,Sundargarh,Lathikata,chc,Birkera,,22.12169,84.79996,Y,Rural,Public
Odisha,Sambalpur,Bamra,chc,Garposh,,22.12411,84.41974,Y,Rural,Public
Odisha,Mayurbhanj,Bangriposi,chc,Bangriposi,,22.15361,86.53855,Y,Rural,Public
Odisha,Sundargarh,Bargaon,chc,Baragaon,,22.16197,84.30333,Y,Rural,Public
Odisha,Sundargarh,Rajgangpur,chc,Rajgangpur,,22.19169,84.59175,Y,Urban,Public
Odisha,Mayurbhanj,Bijatola,chc,Bijatala,,22.20637,86.29404,Y,Rural,Public
Odisha,Mayurbhanj,Saraskana,chc,SIRSHA,,22.22996,86.6643,Y,Rural,Public
Odisha,Sundargarh,Kutra,chc,Kutra,,22.23306,84.45321,Y,Rural,Public
Odisha,Sundargarh,Rajgangpur,chc,Laing,,22.23823,84.64184,Y,Rural,Public
Odisha,Sundargarh,Bisra,chc,Bisra,,22.25382,85.01785,Y,Rural,Public
Odisha,Mayurbhanj,Jamada,chc,Jamda,,22.25993,86.05316,Y,Rural,Public
Odisha,Sundargarh,Kuarmunda,chc,Kuarmunda,,22.2843,84.77355,Y,Rural,Public
Odisha,Sundargarh,Subdega,chc,Subdega,,22.28766,84.10127,Y,Rural,Public
Odisha,Sundargarh,Balisankara,chc,Kinjirkela,,22.28788,83.9458,Y,Rural,Public
Odisha,Sundargarh,Bargaon,chc,Ekma,,22.29168,84.30923,Y,Rural,Public
Odisha,Mayurbhanj,Rairangapur,chc,Gorumahisani,,22.31057,86.28239,Y,Rural,Public
Odisha,Mayurbhanj,Bahalda,chc,Bahalda,,22.38459,86.08673,Y,Rural,Public
Odisha,Sundargarh,Nuagaon,chc,Hatibari,,22.38982,84.84171,Y,Rural,Public
Odisha,Sundargarh,Kuarmunda,chc,Biramitrapur,,22.40328,84.73415,Y,Rural,Public
Odisha,Mayurbhanj,Bahalda,chc,Jharadihi,,22.43731,86.17247,Y,Rural,Public
Odisha,Mayurbhanj,Tiringi,chc,Tiring,,22.51552,86.06316,Y,Rural,Public
Odisha,Malkangiri,Dist Level Facility,dis_h,Malkangiri,,18.36366,81.88953,Y,Rural,Public
Odisha,Koraput,Dist Level Facility,dis_h,DHH Koraput,,18.80966,82.71546,Y,Rural,Public
Odisha,Gajapati,Dist Level Facility,dis_h,Paralakhemundi,,18.81355,84.13619,Y,Rural,Public
Odisha,Rayagada,Dist Level Facility,dis_h,Rayagada,,19.16367,83.40643,Y,Rural,Public
Odisha,Nabarangapur,Dist Level Facility,dis_h,Nabarangpur,,19.22789,82.54805,Y,Rural,Public
Odisha,Ganjam,Dist Level Facility,dis_h,City Hospital,,19.29644,84.79899,Y,Rural,Public
Odisha,Ganjam,Dist Level Facility,dis_h,Berhampur MCH,,19.309521,84.809937,Y,Rural,Public
Odisha,Puri,Dist Level Facility,dis_h,Puri,,19.80338,85.82059,Y,Rural,Public
Odisha,Kalahandi,Dist Level Facility,dis_h,Bhawanipatna,,19.90165,83.16467,Y,Rural,Public
Odisha,Nayagarh,Dist Level Facility,dis_h,Nayagarh,,20.12669,85.10741,Y,Rural,Public
Odisha,Khordha,Dist Level Facility,dis_h,Khordha,,20.17916,85.63068,Y,Rural,Public
Odisha,Jagatsinghpur,Dist Level Facility,dis_h,Jagatsinghpur,,20.25234,86.18198,Y,Rural,Public
Odisha,Khordha,Dist Level Facility,dis_h,Capital Hospital,,20.259,85.82468,Y,Rural,Public
Odisha,Cuttack,Dist Level Facility,dis_h,City Hospital,,20.46617,85.87079,Y,Rural,Public
Odisha,Cuttack,Dist Level Facility,dis_h,Cuttack MCH,,20.471257,85.893562,Y,Rural,Public
Odisha,Kandhamal,Dist Level Facility,dis_h,Phulbani,,20.48498,84.22706,Y,Rural,Public
Odisha,Kendrapara,Dist Level Facility,dis_h,Kendrapada,,20.50497,86.42374,Y,Rural,Public
Odisha,Dhenkanal,Dist Level Facility,dis_h,Dhenkanal,,20.66298,85.59695,Y,Rural,Public
Odisha,Balangir,Dist Level Facility,dis_h,Balangir,,20.69949,83.48933,Y,Rural,Public
Odisha,Nuapada,Dist Level Facility,dis_h,Nuapada,,20.80809,82.53003,Y,Rural,Public
Odisha,Anugul,Dist Level Facility,dis_h,ANGUL,,20.81951,85.09825,Y,Rural,Public
Odisha,Baudh,Dist Level Facility,dis_h,Boudh,,20.84042,84.32032,Y,Rural,Public
Odisha,Sonapur,Dist Level Facility,dis_h,SUBARNAPUR,,20.84237,83.91169,Y,Rural,Public
Odisha,Jajapur,Dist Level Facility,dis_h,Jajpur,,20.84889,86.33257,Y,Rural,Public
Odisha,Bhadrak,Dist Level Facility,dis_h,Bhadrak,,21.06445,86.50208,Y,Rural,Public
Odisha,Bargarh,Dist Level Facility,dis_h,Bargarh,,21.34229,83.63209,Y,Rural,Public
Odisha,Sambalpur,Dist Level Facility,dis_h,Sambalpur,,21.47313,83.9765,Y,Rural,Public
Odisha,Baleshwar,Dist Level Facility,dis_h,Balasore,,21.49181,86.93531,Y,Rural,Public
Odisha,Sambalpur,Dist Level Facility,dis_h,VSSMC Burla,,21.50029,83.886437,Y,Rural,Public
Odisha,Deogarh,Dist Level Facility,dis_h,Deogarh,,21.53482,84.72915,Y,Rural,Public
Odisha,Keonjhar,Dist Level Facility,dis_h,Keonjhar,,21.62938,85.5814,Y,Rural,Public
Odisha,Jharsuguda,Dist Level Facility,dis_h,Jharsuguda,,21.85168,84.01711,Y,Rural,Public
Odisha,Mayurbhanj,Dist Level Facility,dis_h,Baripada,,21.93041,86.73027,Y,Rural,Public
Odisha,Sundargarh,Dist Level Facility,dis_h,RGH Rourkela,,22.01025,84.69253,Y,Rural,Public
Odisha,Sundargarh,Dist Level Facility,dis_h,Sundargarh,,22.11781,84.03674,Y,Rural,Public
Odisha,Malkangiri,Podia,phc,Motu,,17.83301,81.40062,Y,Rural,Public
Odisha,Malkangiri,Kalimela,phc,Koikonda,,17.90856,81.54587,Y,Rural,Public
Odisha,Malkangiri,Kalimela,phc,Manyamkonda,,17.92394,81.65682,Y,Rural,Public
Odisha,Malkangiri,Podia,phc,MV 79,,18.00082,81.52573,Y,Rural,Public
Odisha,Malkangiri,Kalimela,phc,Populur,,18.05868,81.97414,Y,Rural,Public
Odisha,Malkangiri,Kalimela,phc,MV 55,,18.08692,81.63562,Y,Rural,Public
Odisha,Malkangiri,Kalimela,phc,Bhejangwada,,18.103071,81.894829,Y,Rural,Public
Odisha,Malkangiri,Kudumulugumma,phc,Janbai,,18.10481,82.21131,Y,Rural,Public
Odisha,Malkangiri,Kudumulugumma,phc,Badapada,,18.11776,82.2355,Y,Rural,Public
Odisha,Malkangiri,Korukunda,phc,BP PHC Hosp orkel,,18.22201,82.06052,Y,Rural,Public
Odisha,Malkangiri,Korukunda,phc,MV 19,,18.23599,81.81187,Y,Rural,Public
Odisha,Malkangiri,Korukunda,phc,Tumusapally,,18.24,81.92,Y,Rural,Public
Odisha,Malkangiri,Kudumulugumma,phc,Jodamba,,18.24332,82.28783,Y,Rural,Public
Odisha,Malkangiri,Korukunda,phc,MV 47,,18.26806,81.88177,Y,Rural,Public
Odisha,Malkangiri,Podia,phc,Dharampally,,18.27884,81.68681,Y,Rural,Public
Odisha,Malkangiri,Korukunda,phc,Matapaka,,18.32415,81.72845,Y,Rural,Public
Odisha,Koraput,Nandapur,phc,Padua,,18.37408,82.693,Y,Rural,Public
Odisha,Malkangiri,Malkangiri,phc,Biralaxmanpur,,18.38407,82.02212,Y,Rural,Public
Odisha,Koraput,Pottangi,phc,Kotia,,18.4296,82.95985,Y,Rural,Public
Odisha,Malkangiri,Khairput,phc,Mudulipada,,18.44,82.31,Y,Rural,Public
Odisha,Koraput,Nandapur,phc,Banamaliput,,18.45616,82.70617,Y,Rural,Public
Odisha,Malkangiri,Malkangiri,phc,Pedakonda,,18.46244,81.95839,Y,Rural,Public
Odisha,Koraput,Pottangi,phc,Chipakaru,,18.46311,83.01904,Y,Rural,Public
Odisha,Malkangiri,Khairput,phc,Padaghat,,18.47,82.2,Y,Rural,Public
Odisha,Koraput,Nandapur,phc,Bilaput,,18.47296,82.57556,Y,Rural,Public
Odisha,Malkangiri,Malkangiri,phc,Padmagiri,,18.48921,81.91778,Y,Rural,Public
Odisha,Koraput,Pottangi,phc,Pukali,,18.49566,82.89738,Y,Rural,Public
Odisha,Koraput,Nandapur,phc,Kosandi,,18.49585,82.74271,Y,Rural,Public
Odisha,Malkangiri,Mathili,phc,Kiang Kaliaguda,,18.501278,82.034203,Y,Rural,Public
Odisha,Malkangiri,Mathili,phc,Pangam,,18.51,82.13,Y,Rural,Public
Odisha,Koraput,Pottangi,phc,Sunki,,18.51385,83.04143,Y,Rural,Public
Odisha,Malkangiri,Khairput,phc,Jaugali,,18.53498,82.265631,Y,Rural,Public
Odisha,Koraput,Lamptaput,phc,Orabir,,18.53755,82.58646,Y,Rural,Public
Odisha,Malkangiri,Mathili,phc,Bijapadar,,18.57203,82.09747,Y,Rural,Public
Odisha,Malkangiri,Khairput,phc,Govindapally,,18.58048,82.28294,Y,Rural,Public
Odisha,Malkangiri,Mathili,phc,Salimi,,18.5959,82.06835,Y,Rural,Public
Odisha,Malkangiri,Mathili,phc,Bhejaguda,,18.60989,81.97765,Y,Rural,Public
Odisha,Koraput,Lamptaput,phc,Mattamput,,18.61574,82.56535,Y,Rural,Public
Odisha,Koraput,Similiguda,phc,Kakadamba,,18.65834,82.90991,Y,Rural,Public
Odisha,Koraput,Boipariguda,phc,Dasmantpur,,18.68315,82.42633,Y,Rural,Public
Odisha,Koraput,Koraput,phc,Dumuriput,,18.68715,82.7353,Y,Rural,Public
Odisha,Koraput,Similiguda,phc,Similiguda,,18.69641,82.84682,Y,Rural,Public
Odisha,Koraput,Similiguda,phc,Dhudhari,,18.71577,82.96178,Y,Rural,Public
Odisha,Koraput,Koraput,phc,Suku,,18.73059,82.7154,Y,Rural,Public
Odisha,Koraput,Koraput,phc,Talajaniguda,,18.75282,83.00994,Y,Rural,Public
Odisha,Koraput,Narayanpatna,phc,Talagumandi,,18.75837,83.09145,Y,Rural,Public
Odisha,Koraput,Boipariguda,phc,Ramgiri,,18.76788,82.24341,Y,Rural,Public
Odisha,Gajapati,Gosani,phc,Baghasala,,18.80716,84.18052,Y,Rural,Public
Odisha,Gajapati,Gosani,phc,Labnyagada,,18.81453,84.32407,Y,Rural,Public
Odisha,Koraput,Boipariguda,phc,Baligaon,,18.81888,82.31366,Y,Rural,Public
Odisha,Gajapati,Kasinagar,phc,Hadhubhangi,,18.82109,83.94091,Y,Rural,Public
Odisha,Koraput,Kundra,phc,Digapur,,18.82572,82.46786,Y,Rural,Public
Odisha,Gajapati,Gosani,phc,Garabandha,,18.82814,84.27271,Y,Rural,Public
Odisha,Koraput,Bandhugaon,phc,Almonda,,18.85471,83.31504,Y,Rural,Public
Odisha,Gajapati,Gumma,phc,Namanguda,,18.87357,84.10243,Y,Rural,Public
Odisha,Koraput,Jeypore,phc,Phampuni,,18.88416,82.47134,Y,Rural,Public
Odisha,Koraput,Dasamanthpur,phc,Biriguda,,18.8899,82.87471,Y,Rural,Public
Odisha,Koraput,Kundra,phc,Asana,,18.89281,82.30647,Y,Rural,Public
Odisha,Koraput,Laxmipur,phc,Kakriguma,,18.92064,83.02292,Y,Rural,Public
Odisha,Koraput,Jeypore,phc,Badajeuna,,18.92355,82.50235,Y,Rural,Public
Odisha,Gajapati,Gumma,phc,Gaiba,,18.92377,83.9491,Y,Rural,Public
Odisha,Gajapati,Rayagada,phc,Jeerango,,18.9384,84.32359,Y,Rural,Public
Odisha,Gajapati,Rayagada,phc,Koinpur,,18.9384,84.32359,Y,Rural,Public
Odisha,Koraput,Jeypore,phc,Ranigada,,18.94669,82.66459,Y,Rural,Public
Odisha,Koraput,Jeypore,phc,Putra,,18.95466,82.51477,Y,Rural,Public
Odisha,Koraput,Bandhugaon,phc,Neelabadi,,18.95516,83.27317,Y,Rural,Public
Odisha,Gajapati,Kasinagar,phc,Khandava,,18.96627,83.83239,Y,Rural,Public
Odisha,Rayagada,Rayagada,phc,Kereda,,18.97283,83.45067,Y,Rural,Public
Odisha,Koraput,Kundra,phc,Bagderi,,18.99262,82.3619,Y,Rural,Public
Odisha,Koraput,Jeypore,phc,Konga,,18.99846,82.47236,Y,Rural,Public
Odisha,Gajapati,Rayagada,phc,Loba,,19.00976,84.28673,Y,Rural,Public
Odisha,Gajapati,Gumma,phc,Baijhal,,19.01147,83.91364,Y,Rural,Public
Odisha,Rayagada,Gunupur,phc,Kulusingi,,19.013,83.97639,Y,Rural,Public
Odisha,Rayagada,Rayagada,phc,Khilimisiguda,,19.01645,83.45888,Y,Rural,Public
Odisha,Koraput,Bandhugaon,phc,Kumbhariput,,19.0233,83.26614,Y,Rural,Public
Odisha,Ganjam,Patrapur,phc,Surangi,,19.03594,84.46665,Y,Rural,Public
Odisha,Koraput,Kotpad,phc,Murthahandi,,19.05426,82.26754,Y,Rural,Public
Odisha,Koraput,Boriguma,phc,B Singpur,,19.05448,82.67949,Y,Rural,Public
Odisha,Koraput,Kotpad,phc,SB Nuagam,,19.05505,82.32939,Y,Rural,Public
Odisha,Ganjam,Patrapur,phc,Baranga,,19.06852,84.59354,Y,Rural,Public
Odisha,Ganjam,Patrapur,phc,Nuapentho,,19.077345,84.623822,Y,Rural,Public
Odisha,Ganjam,Patrapur,phc,Jarada,,19.07992,84.50385,Y,Rural,Public
Odisha,Koraput,Laxmipur,phc,Tala Kutting,,19.08032,83.17971,Y,Rural,Public
Odisha,Koraput,Dasamanthpur,phc,Adarmaunda,,19.08405,83.01365,Y,Rural,Public
Odisha,Koraput,Kotpad,phc,Chandili,,19.08512,82.21921,Y,Rural,Public
Odisha,Gajapati,R. Udayagiri,phc,Ramagiri,,19.08775,84.29405,Y,Rural,Public
Odisha,Rayagada,Gunupur,phc,Puttasing,,19.09006,83.98494,Y,Rural,Public
Odisha,Gajapati,Nuagada,phc,OH Nuagada,,19.09938,84.05168,Y,Rural,Public
Odisha,Koraput,Boriguma,phc,Hardali,,19.1008,82.60664,Y,Rural,Public
Odisha,Koraput,Boriguma,phc,Sasahandi,,19.10727,82.47017,Y,Rural,Public
Odisha,Rayagada,Rayagada,phc,Kumbhikota,,19.11615,83.25191,Y,Rural,Public
Odisha,Koraput,Boriguma,phc,Katharagada,,19.11734,82.74261,Y,Rural,Public
Odisha,Koraput,Dasamanthpur,phc,Griliguma,,19.1271,82.86271,Y,Rural,Public
Odisha,Rayagada,Rayagada,phc,Jangili,,19.12956,83.52475,Y,Rural,Public
Odisha,Ganjam,Patrapur,phc,Tumba,,19.13169,84.55642,Y,Rural,Public
Odisha,Ganjam,Chikiti,phc,SUMANDI,,19.133844,84.712005,Y,Rural,Public
Odisha,Koraput,Boriguma,phc,Kumuli,,19.13391,82.68772,Y,Rural,Public
Odisha,Ganjam,Chikiti,phc,Sorala,,19.13653,84.75335,Y,Rural,Public
Odisha,Koraput,Laxmipur,phc,Keskapadi,,19.13812,83.22853,Y,Rural,Public
Odisha,Ganjam,Chikiti,phc,Kutlingi,,19.13944,84.63212,Y,Rural,Public
Odisha,Koraput,Dasamanthpur,phc,Dumbaguda,,19.14951,82.97359,Y,Rural,Public
Odisha,Ganjam,Patrapur,phc,Turubudi,,19.162256,84.406574,Y,Rural,Public
Odisha,Gajapati,Nuagada,phc,Keradango,,19.16392,84.03721,Y,Rural,Public
Odisha,Rayagada,Ramanaguda,phc,Ukkumba,,19.16495,83.79301,Y,Rural,Public
Odisha,Koraput,Kotpad,phc,Kusumi,,19.16989,82.35815,Y,Rural,Public
Odisha,Rayagada,Gunupur,phc,Dombosora,,19.17173,83.83454,Y,Rural,Public
Odisha,Koraput,Boriguma,phc,Dengapadar,,19.17176,82.50232,Y,Rural,Public
Odisha,Rayagada,Kashipur,phc,Tikiri,,19.175,83.09631,Y,Rural,Public
Odisha,Ganjam,Patrapur,phc,Khariaguda,,19.17853,84.46577,Y,Rural,Public
Odisha,Ganjam,Rangeilunda,phc,MANTRIDI,,19.19076,84.76859,Y,Rural,Public
Odisha,Rayagada,Kashipur,phc,Kuchiepadar,,19.19232,83.01648,Y,Rural,Public
Odisha,Nabarangapur,Kosagumuda,phc,Asanga (Kokidisemala),,19.19607,82.33877,Y,Rural,Public
Odisha,Rayagada,Kolnora,phc,Rekhapadar,,19.20163,83.60186,Y,Rural,Public
Odisha,Nabarangapur,Nandahandi,phc,Ekamba,,19.20547,82.66401,Y,Rural,Public
Odisha,Rayagada,Rayagada,phc,Maligaon,,19.2069,83.42879,Y,Rural,Public
Odisha,Nabarangapur,Nandahandi,phc,Jagannathpur,,19.20825,82.73596,Y,Rural,Public
Odisha,Nabarangapur,Kosagumuda,phc,Badamba,,19.21403,82.21565,Y,Rural,Public
Odisha,Ganjam,Chikiti,phc,Nuapada,,19.22071,84.57345,Y,Rural,Public
Odisha,Ganjam,Chikiti,phc,Karabalua,,19.22101,84.49913,Y,Rural,Public
Odisha,Ganjam,Digapahandi,phc,Goudagaon,,19.22382,84.47889,Y,Rural,Public
Odisha,Rayagada,Kashipur,phc,Dongasil,,19.22785,82.98521,Y,Rural,Public
Odisha,Gajapati,R. Udayagiri,phc,Dereba,,19.22854,84.30859,Y,Rural,Public
Odisha,Rayagada,Kashipur,phc,Gorakhpur,,19.2376,83.10273,Y,Rural,Public
Odisha,Ganjam,Rangeilunda,phc,SUNADEI,,19.23883,84.74648,Y,Rural,Public
Odisha,Gajapati,R. Udayagiri,phc,Chelligada,,19.24304,84.19759,Y,Rural,Public
Odisha,Nabarangapur,Tentulikhunti,phc,Panaspadar,,19.24673,82.73459,Y,Rural,Public
Odisha,Rayagada,Padmapur,phc,Likitipadar,,19.25098,83.97706,Y,Rural,Public
Odisha,Rayagada,Padmapur,phc,Derigaon,,19.25402,83.75467,Y,Rural,Public
Odisha,Ganjam,Rangeilunda,phc,GOPALPUR,,19.25871,84.90072,Y,Rural,Public
Odisha,Rayagada,Kolnora,phc,Minajhola,,19.26312,83.6066,Y,Rural,Public
Odisha,Ganjam,Rangeilunda,phc,BHANJAVIHAR,,19.26794,84.83922,Y,Rural,Public
Odisha,Rayagada,Padmapur,phc,Tembaguda,,19.27928,83.98658,Y,Rural,Public
Odisha,Rayagada,Ramanaguda,phc,Rugudubai,,19.28828,83.6384,Y,Rural,Public
Odisha,Nabarangapur,Nawarangapur,phc,Jambaguda,,19.29098,82.5997,Y,Rural,Public
Odisha,Nabarangapur,Nawarangapur,phc,Gumaguda,,19.29248,82.54314,Y,Rural,Public
Odisha,Rayagada,Kolnora,phc,Badakhilapadar,,19.30066,83.53416,Y,Rural,Public
Odisha,Rayagada,Padmapur,phc,Naira,,19.30187,83.7734,Y,Rural,Public
Odisha,Ganjam,Ganjam,phc,Berhampur Zonal Dispensary,,19.304016,84.826368,Y,Urban,Public
Odisha,Nabarangapur,Kosagumuda,phc,Kodinga,,19.30407,82.34619,Y,Rural,Public
Odisha,Gajapati,Mohana,phc,Sikulipadar,,19.30839,84.2125,Y,Rural,Public
Odisha,Ganjam,Kukudakhandi,phc,Banthapalli,,19.31168,84.72314,Y,Rural,Public
Odisha,Ganjam,Digapahandi,phc,Jharipadar,,19.31565,84.60039,Y,Rural,Public
Odisha,Nabarangapur,Tentulikhunti,phc,Anchalgumma,,19.32205,82.67939,Y,Rural,Public
Odisha,Nabarangapur,Tentulikhunti,phc,Mangordora,,19.33007,82.77894,Y,Rural,Public
Odisha,Ganjam,Chhatrapur,phc,Narendrapur,,19.33416,84.86849,Y,Rural,Public
Odisha,Ganjam,Kukudakhandi,phc,Jagadalapur,,19.3394,84.79195,Y,Rural,Public
Odisha,Ganjam,Digapahandi,phc,Talasingi,,19.344,84.49743,Y,Rural,Public
Odisha,Nabarangapur,Papadahandi,phc,Biriguda,,19.34592,82.40791,Y,Rural,Public
Odisha,Rayagada,Bissamcuttack,phc,Durgi,,19.34671,83.59834,Y,Rural,Public
Odisha,Ganjam,Digapahandi,phc,Padmanavpur,,19.3535,84.56516,Y,Rural,Public
Odisha,Gajapati,Mohana,phc,Chudangapur,,19.35499,84.15027,Y,Rural,Public
Odisha,Ganjam,Chhatrapur,phc,Nolianuagaon,,19.36387,85.03291,Y,Rural,Public
Odisha,Nabarangapur,Tentulikhunti,phc,Patraput,,19.36906,82.68841,Y,Rural,Public
Odisha,Kalahandi,Th. Rampur,phc,Adri,,19.37139,82.92566,Y,Rural,Public
Odisha,Ganjam,Kukudakhandi,phc,Balipada,,19.37531,84.69746,Y,Rural,Public
Odisha,Rayagada,Gudari,phc,Dhepaguda,,19.3766,83.70535,Y,Rural,Public
Odisha,Ganjam,Digapahandi,phc,Bhismagiri,,19.3831,84.4648,Y,Rural,Public
Odisha,Ganjam,Digapahandi,phc,Sidheswar,,19.38459,84.64618,Y,Rural,Public
Odisha,Nabarangapur,Kosagumuda,phc,Motigaon,,19.38563,82.19748,Y,Rural,Public
Odisha,Ganjam,Ganjam,phc,Ganjam,,19.38797,85.05505,Y,Rural,Public
Odisha,Nabarangapur,Kosagumuda,phc,Sanagumuda,,19.38842,82.29896,Y,Rural,Public
Odisha,Nabarangapur,Papadahandi,phc,Tumbarla,,19.39387,82.56629,Y,Rural,Public
Odisha,Ganjam,Chhatrapur,phc,Sunderpur,,19.39647,84.91872,Y,Rural,Public
Odisha,Rayagada,Kalyansingpur,phc,Sikarpai,,19.39866,83.31658,Y,Rural,Public
Odisha,Rayagada,Kashipur,phc,Mandibisi,,19.3998,83.15921,Y,Rural,Public
Odisha,Kalahandi,Jaipatna,phc,Dhansuli,,19.40311,82.78856,Y,Rural,Public
Odisha,Nabarangapur,Kosagumuda,phc,Katagam,,19.40376,82.26181,Y,Rural,Public
Odisha,Ganjam,Sanakhemundi,phc,GOUTAMI,,19.40583,84.64411,Y,Rural,Public
Odisha,Ganjam,Sanakhemundi,phc,DENGAOSTA,,19.41615,84.5044,Y,Rural,Public
Odisha,Ganjam,Hinjilicut,phc,Kanchuru,,19.42156,84.77505,Y,Rural,Public
Odisha,Ganjam,Sanakhemundi,phc,SAHASPUR,,19.42318,84.60796,Y,Rural,Public
Odisha,Rayagada,Gudari,phc,Sargiguda,,19.42398,83.81323,Y,Rural,Public
Odisha,Ganjam,Ganjam,phc,Humma,,19.42907,85.074,Y,Rural,Public
Odisha,Nabarangapur,Papadahandi,phc,Mahendrai,,19.429934,82.427147,Y,Rural,Public
Odisha,Ganjam,Sheragada,phc,ALARIGADA,,19.43247,84.686571,Y,Rural,Public
Odisha,Rayagada,Kalyansingpur,phc,Majhiguda,,19.43786,83.33122,Y,Rural,Public
Odisha,Ganjam,Sanakhemundi,phc,PUDAMARI,,19.44031,84.46542,Y,Rural,Public
Odisha,Ganjam,Sanakhemundi,phc,PATAPUR,,19.44528,84.59344,Y,Rural,Public
Odisha,Ganjam,Hinjilicut,phc,Saru,,19.44692,84.75898,Y,Rural,Public
Odisha,Rayagada,Bissamcuttack,phc,Sahada,,19.45145,83.60354,Y,Rural,Public
Odisha,Ganjam,Ganjam,phc,U S D Pur,,19.45926,84.97833,Y,Rural,Public
Odisha,Ganjam,Sanakhemundi,phc,KANKORADA,,19.46158,84.66547,Y,Rural,Public
Odisha,Rayagada,Kashipur,phc,Sunger,,19.46396,83.1008,Y,Rural,Public
Odisha,Nabarangapur,Dabugaon,phc,Borigaam,,19.46594,82.29025,Y,Rural,Public
Odisha,Nabarangapur,Papadahandi,phc,Maidalpur,,19.47201,82.58559,Y,Rural,Public
Odisha,Nabarangapur,Dabugaon,phc,Ravanaguda,,19.47648,82.31125,Y,Rural,Public
Odisha,Gajapati,Mohana,phc,Birikote,,19.47839,84.10027,Y,Rural,Public
Odisha,Rayagada,Kalyansingpur,phc,Badatodra,,19.485,83.28104,Y,Rural,Public
Odisha,Ganjam,Sheragada,phc,DENGAPADAR,,19.4857,84.66881,Y,Rural,Public
Odisha,Ganjam,Hinjilicut,phc,J Dayanidhipur,,19.48703,84.82972,Y,Rural,Public
Odisha,Gajapati,Mohana,phc,Adava,,19.49014,84.18291,Y,Rural,Public
Odisha,Nabarangapur,Umerkote,phc,Singsari,,19.50369,82.17007,Y,Rural,Public
Odisha,Ganjam,Purusottampur,phc,Pratappur,,19.50745,84.93567,Y,Rural,Public
Odisha,Gajapati,Mohana,phc,P Govindapur,,19.51396,84.33761,Y,Rural,Public
Odisha,Ganjam,Purusottampur,phc,Pandia,,19.51523,84.83731,Y,Rural,Public
Odisha,Rayagada,Bissamcuttack,phc,Bhakuroguda,,19.5163,83.50848,Y,Rural,Public
Odisha,Ganjam,Ganjam,phc,Rambha,,19.52271,85.0933,Y,Rural,Public
Odisha,Kalahandi,Kalampur,phc,Bandhakana,,19.52647,82.88052,Y,Rural,Public
Odisha,Rayagada,Bissamcuttack,phc,Khambesi,,19.53285,83.41014,Y,Rural,Public
Odisha,Ganjam,Sheragada,phc,PITALA,,19.53442,84.72369,Y,Rural,Public
Odisha,Kalahandi,Th. Rampur,phc,Nakrundi,,19.53581,83.15951,Y,Rural,Public
Odisha,Ganjam,Khallikote,phc,Bedha Nalinakyapur,,19.53755,84.95272,Y,Rural,Public
Odisha,Ganjam,Sheragada,phc,KARADAKANA,,19.53867,84.56715,Y,Rural,Public
Odisha,Ganjam,Purusottampur,phc,Badakharida,,19.54921,84.83681,Y,Rural,Public
Odisha,Ganjam,Khallikote,phc,Chikili Talapada,,19.56934,85.02462,Y,Rural,Public
Odisha,Kalahandi,Jaipatna,phc,Uchhula,,19.56983,82.70573,Y,Rural,Public
Odisha,Ganjam,Purusottampur,phc,Somma,,19.57009,84.92764,Y,Rural,Public
Odisha,Ganjam,Sheragada,phc,KULAGADA,,19.57476,84.60216,Y,Rural,Public
Odisha,Kalahandi,Koksara,phc,Ampani,,19.57683,82.62566,Y,Rural,Public
Odisha,Ganjam,Dharakote,phc,Manikyapur,,19.57858,84.51686,Y,Rural,Public
Odisha,Ganjam,Aska,phc,Pahala Jaypur,,19.58306,84.68175,Y,Rural,Public
Odisha,Nabarangapur,Jharigaon,phc,Dhodra,,19.60135,82.25594,Y,Rural,Public
Odisha,Ganjam,Kavi Surya Nagar,phc,Athagada Patana,,19.60231,84.81481,Y,Rural,Public
Odisha,Rayagada,Chandrapur,phc,Budubali,,19.60402,83.79206,Y,Rural,Public
Odisha,Rayagada,Chandrapur,phc,Dangosoroda,,19.60555,83.64333,Y,Rural,Public
Odisha,Kalahandi,Jaipatna,phc,Bandigaon,,19.60722,82.80666,Y,Rural,Public
Odisha,Kalahandi,Koksara,phc,Ladugaon,,19.60772,82.71592,Y,Rural,Public
Odisha,Puri,Krushnaprasad,phc,Titipa,,19.61176,85.33956,Y,Rural,Public
Odisha,Nabarangapur,Umerkote,phc,Badabharandi,,19.61798,82.24955,Y,Rural,Public
Odisha,Ganjam,Kavi Surya Nagar,phc,Budhamba,,19.62137,84.86501,Y,Rural,Public
Odisha,Ganjam,Sorada,phc,GOUDAGOTHA,,19.6249,84.304,Y,Rural,Public
Odisha,Nabarangapur,Jharigaon,phc,Kodavatta,,19.62589,82.26684,Y,Rural,Public
Odisha,Ganjam,Beguniapada,phc,Beguniapada,,19.63135,84.98951,Y,Rural,Public
Odisha,Ganjam,Dharakote,phc,Mandamarai,,19.63964,84.60366,Y,Rural,Public
Odisha,Ganjam,Khallikote,phc,Pathara,,19.64165,85.17056,Y,Rural,Public
Odisha,Rayagada,Muniguda,phc,Padmapur,,19.64385,83.53585,Y,Rural,Public
Odisha,Kandhamal,Daringibadi,phc,Mardipanga,,19.64625,83.96965,Y,Rural,Public
Odisha,Nabarangapur,Jharigaon,phc,Phupughon,,19.64829,82.39783,Y,Rural,Public
Odisha,Ganjam,Dharakote,phc,Jagmohan,,19.64885,84.59791,Y,Rural,Public
Odisha,Kandhamal,Daringibadi,phc,Bamunigaon,,19.65329,84.07376,Y,Rural,Public
Odisha,Ganjam,Khallikote,phc,Kanheipur,,19.65505,85.13085,Y,Rural,Public
Odisha,Kalahandi,Jaipatna,phc,Ranmal,,19.65512,82.80555,Y,Rural,Public
Odisha,Ganjam,Sorada,phc,SIDHAPUR,,19.66388,84.44086,Y,Rural,Public
Odisha,Puri,Krushnaprasad,phc,Satapada,,19.66845,85.45472,Y,Rural,Public
Odisha,Kandhamal,Kotagarh,phc,Durgapanga,,19.67357,83.65491,Y,Rural,Public
Odisha,Ganjam,Dharakote,phc,Jahada,,19.67578,84.57415,Y,Rural,Public
Odisha,Ganjam,Polsara,phc,Hatiotta,,19.68235,84.77502,Y,Rural,Public
Odisha,Ganjam,Aska,phc,Bhetanai,,19.68297,84.69086,Y,Rural,Public
Odisha,Nabarangapur,Jharigaon,phc,Ichhapur,,19.68659,82.44379,Y,Rural,Public
Odisha,Nabarangapur,Umerkote,phc,GH Umerkote,,19.688101,82.199734,Y,Rural,Public
Odisha,Kandhamal,Daringibadi,phc,Gadapur,,19.6905,84.04577,Y,Rural,Public
Odisha,Kalahandi,Koksara,phc,Badpodaguda,,19.69426,82.6386,Y,Rural,Public
Odisha,Kalahandi,Lanjigarh,phc,Bengaon,,19.70617,83.31897,Y,Rural,Public
Odisha,Nabarangapur,Umerkote,phc,Sunabeda,,19.70858,82.23631,Y,Rural,Public
Odisha,Puri,Krushnaprasad,phc,Panas Pada,,19.73205,85.51928,Y,Rural,Public
Odisha,Kalahandi,Junagarh,phc,Charbahal,,19.7353,82.81084,Y,Rural,Public
Odisha,Kalahandi,Junagarh,phc,Habaspur,,19.73576,82.88509,Y,Rural,Public
Odisha,Ganjam,Buguda,phc,Balipadara,,19.73613,84.71109,Y,Rural,Public
Odisha,Khordha,Chilika,phc,Chasangara,,19.73689,85.16238,Y,Rural,Public
Odisha,Kandhamal,Kotagarh,phc,Srirampur,,19.73746,83.8989,Y,Rural,Public
Odisha,Puri,Krushnaprasad,phc,KHANDAKAI,,19.741606,85.630475,Y,Rural,Public
Odisha,Ganjam,Sorada,phc,BADABADANGI,,19.74211,84.36472,Y,Rural,Public
Odisha,Ganjam,Aska,phc,Gahangu,,19.74525,84.67628,Y,Rural,Public
Odisha,Kandhamal,Daringibadi,phc,Sikarma,,19.74763,84.08887,Y,Rural,Public
Odisha,Kandhamal,Kotagarh,phc,Judabali,,19.74783,83.72024,Y,Rural,Public
Odisha,Ganjam,Beguniapada,phc,Rahada,,19.74878,85.0546,Y,Rural,Public
Odisha,Kalahandi,Dharmagarh,phc,Behera,,19.75125,82.68667,Y,Rural,Public
Odisha,Kalahandi,Bhawanipatna,phc,Jugsaipatna,,19.75155,83.19428,Y,Rural,Public
Odisha,Ganjam,Polsara,phc,Dhunkapada,,19.75438,84.8026,Y,Rural,Public
Odisha,Ganjam,Polsara,phc,Chirikipada Sasan,,19.75803,84.84377,Y,Rural,Public
Odisha,Rayagada,Muniguda,phc,Jagadalpur,,19.7644,83.55313,Y,Rural,Public
Odisha,Nabarangapur,Umerkote,phc,Kursi,,19.7729,82.19289,Y,Rural,Public
Odisha,Kalahandi,Junagarh,phc,Mahichala,,19.77344,82.8569,Y,Rural,Public
Odisha,Nabarangapur,Chandahandi,phc,Dalabeda,,19.77679,82.49966,Y,Rural,Public
Odisha,Ganjam,Belguntha,phc,Gangapur,,19.78313,84.61067,Y,Rural,Public
Odisha,Ganjam,Polsara,phc,Pandiripada,,19.79228,84.95932,Y,Rural,Public
Odisha,Kalahandi,Junagarh,phc,Dedar,,19.79366,83.04113,Y,Rural,Public
Odisha,Puri,Brahmagiri,phc,Brahmagir,,19.79386,85.64402,Y,Rural,Public
Odisha,Ganjam,Belguntha,phc,Pailipada,,19.79821,84.61707,Y,Rural,Public
Odisha,Khordha,Chilika,phc,Nairi,,19.80165,85.30952,Y,Rural,Public
Odisha,Puri,Puri,phc,KDMM,,19.80814,85.83412,Y,Urban,Public
Odisha,Puri,Puri,phc,Chandan Hazuri Paediatric Hospital,,19.81,85.81723,Y,Urban,Public
Odisha,Ganjam,Belguntha,phc,Banaka,,19.8215,84.63228,Y,Rural,Public
Odisha,Rayagada,Muniguda,phc,Ambadola,,19.82203,83.46411,Y,Rural,Public
Odisha,Nabarangapur,Raighar,phc,Kurabeda,,19.8244,82.01807,Y,Rural,Public
Odisha,Puri,Brahmagiri,phc,Khajuria,,19.82526,85.62834,Y,Rural,Public
Odisha,Khordha,Banpur,phc,Sunakhala,,19.83175,85.28291,Y,Rural,Public
Odisha,Khordha,Banpur,phc,Halanda,,19.83267,85.16738,Y,Rural,Public
Odisha,Kalahandi,Junagarh,phc,Kulihari,,19.83525,82.9813,Y,Rural,Public
Odisha,Kandhamal,Kotagarh,phc,Kotogarh,,19.83593,83.72691,Y,Rural,Public
Odisha,Puri,Puri,phc,Dobandha,,19.84165,85.87399,Y,Rural,Public
Odisha,Rayagada,Muniguda,phc,Kumudabali,,19.84573,83.45786,Y,Rural,Public
Odisha,Ganjam,Sorada,phc,GAZALBADI,,19.84899,84.28699,Y,Rural,Public
Odisha,Puri,Brahmagiri,phc,Raibidhar,,19.8503,85.64496,Y,Rural,Public
Odisha,Puri,Brahmagiri,phc,DHARMAKIRTI,,19.851346,85.663898,Y,Rural,Public
Odisha,Nabarangapur,Raighar,phc,Kumuli,,19.85348,82.107,Y,Rural,Public
Odisha,Ganjam,Buguda,phc,Karadabadi,,19.85608,84.82771,Y,Rural,Public
Odisha,Kandhamal,Raikia,phc,Badagada,,19.8562,84.38926,Y,Rural,Public
Odisha,Ganjam,Sorada,phc,GOCHHA,,19.85689,84.32331,Y,Rural,Public
Odisha,Khordha,Chilika,phc,Sorana,,19.8614,85.38753,Y,Rural,Public
Odisha,Kalahandi,Dharmagarh,phc,Khairpadar,,19.86711,82.83419,Y,Rural,Public
Odisha,Khordha,Banpur,phc,Niladriprasad,,19.86941,85.08359,Y,Rural,Public
Odisha,Puri,Gop,phc,Chhaitana,,19.87142,85.93185,Y,Rural,Public
Odisha,Nabarangapur,Chandahandi,phc,Deobandha,,19.87479,82.45055,Y,Rural,Public
Odisha,Nabarangapur,Chandahandi,phc,Beheramunda,,19.87997,82.52138,Y,Rural,Public
Odisha,Khordha,Tangi,phc,Kuhudi,,19.8817,85.35526,Y,Rural,Public
Odisha,Nabarangapur,Raighar,phc,Raighar,,19.88529,82.07517,Y,Rural,Public
Odisha,Puri,Puri,phc,Chalisbatia,,19.88723,85.85414,Y,Rural,Public
Odisha,Puri,Puri,phc,Siruli,,19.88802,85.70677,Y,Rural,Public
Odisha,Khordha,Chilika,phc,Jaripada,,19.8888,85.40939,Y,Rural,Public
Odisha,Puri,Gop,phc,Konark,,19.89017,86.09248,Y,Rural,Public
Odisha,Ganjam,Buguda,phc,Karachuli,,19.89485,84.8886,Y,Rural,Public
Odisha,Nabarangapur,Chandahandi,phc,Ankabeda,,19.89529,82.45862,Y,Rural,Public
Odisha,Puri,Kanas,phc,Mandarbasta,,19.89668,85.64994,Y,Rural,Public
Odisha,Ganjam,Jagannath prasad,phc,Baragaon,,19.89822,84.68788,Y,Rural,Public
Odisha,Ganjam,Buguda,phc,Manitara,,19.9019,84.80596,Y,Rural,Public
Odisha,Puri,Kakatpur,phc,Fakirsahi,,19.90237,86.20731,Y,Rural,Public
Odisha,Kalahandi,Dharmagarh,phc,Kankeri,,19.90322,82.74214,Y,Rural,Public
Odisha,Puri,Kanas,phc,Harichandiprasad,,19.91195,85.62305,Y,Rural,Public
Odisha,Nabarangapur,Raighar,phc,Jodinga,,19.91668,81.90501,Y,Rural,Public
Odisha,Puri,Puri,phc,Baliput,,19.92116,85.93259,Y,Rural,Public
Odisha,Puri,Gop,phc,Badatara,,19.92284,86.03722,Y,Rural,Public
Odisha,Nabarangapur,Raighar,phc,Gona,,19.92338,82.15789,Y,Rural,Public
Odisha,Puri,Gop,phc,Madaraga,,19.92384,85.98886,Y,Rural,Public
Odisha,Kandhamal,Tumudibandha,phc,Belghar,,19.92611,83.60441,Y,Rural,Public
Odisha,Puri,Kanas,phc,Gadisagada,,19.92805,85.60342,Y,Rural,Public
Odisha,Nabarangapur,Raighar,phc,Dumurimunda,,19.92974,82.09219,Y,Rural,Public
Odisha,Puri,Gop,phc,Nagapur,,19.93245,86.0104,Y,Rural,Public
Odisha,Puri,Satyabadi,phc,Sukal,,19.93344,85.70927,Y,Rural,Public
Odisha,Khordha,Tangi,phc,Balipatpur,,19.93529,85.49818,Y,Rural,Public
Odisha,Puri,Gop,phc,Ambelihana,,19.93548,86.1127,Y,Rural,Public
Odisha,Kalahandi,Dharmagarh,phc,Tipiguda,,19.93696,82.7464,Y,Rural,Public
Odisha,Ganjam,Jagannath prasad,phc,Chhamunda,,19.93722,84.77145,Y,Rural,Public
Odisha,Khordha,Tangi,phc,Bhusandapur,,19.93779,85.51339,Y,Rural,Public
Odisha,Puri,Astaranga,phc,BANTALA,,19.94084,86.23687,Y,Rural,Public
Odisha,Ganjam,Bhanjanagar,phc,Bahadapadar,,19.94517,84.52052,Y,Rural,Public
Odisha,Kalahandi,Lanjigarh,phc,Lanjigarh Road,,19.94518,83.40479,Y,Rural,Public
Odisha,Puri,Satyabadi,phc,Panichhata,,19.94575,85.88753,Y,Rural,Public
Odisha,Kalahandi,Golamunda,phc,Farang,,19.94726,82.8929,Y,Rural,Public
Odisha,Puri,Kanas,phc,Nandigada,,19.95487,85.65334,Y,Rural,Public
Odisha,Kandhamal,Raikia,phc,Indragad,,19.95493,84.39915,Y,Rural,Public
Odisha,Puri,Kanas,phc,Sahupada,,19.95656,85.5837,Y,Rural,Public
Odisha,Puri,Satyabadi,phc,Gabakunda,,19.96055,85.76376,Y,Rural,Public
Odisha,Puri,Kakatpur,phc,Balidokan,,19.9628,86.16439,Y,Rural,Public
Odisha,Puri,Gop,phc,Birtunga,,19.96625,86.06158,Y,Rural,Public
Odisha,Kalahandi,Bhawanipatna,phc,Deypur,,19.96891,83.26486,Y,Rural,Public
Odisha,Ganjam,Bhanjanagar,phc,Kulada,,19.9747,84.63085,Y,Rural,Public
Odisha,Puri,Astaranga,phc,Ratanapur,,19.9761,86.27152,Y,Rural,Public
Odisha,Kalahandi,Bhawanipatna,phc,Dadpur,,19.97745,83.23019,Y,Rural,Public
Odisha,Puri,Delanga,phc,Indipur,,19.98116,85.72493,Y,Rural,Public
Odisha,Kandhamal,Daringibadi,phc,Simanabadi,,19.98448,84.06846,Y,Rural,Public
Odisha,Puri,Kakatpur,phc,Patapur,,19.98791,86.16616,Y,Rural,Public
Odisha,Nayagarh,Odagaon,phc,Komanda,,19.98906,84.92663,Y,Rural,Public
Odisha,Khordha,Tangi,phc,Badapokharia,,19.9908,85.48357,Y,Rural,Public
Odisha,Khordha,Tangi,phc,Nirakarpur,,19.99231,85.53866,Y,Rural,Public
Odisha,Kalahandi,Lanjigarh,phc,Madhupur,,19.99434,83.35905,Y,Rural,Public
Odisha,Ganjam,Bhanjanagar,phc,Daha,,19.995568,84.346786,Y,Rural,Public
Odisha,Puri,Nimapara,phc,Nuasantha,,19.99784,85.91283,Y,Rural,Public
Odisha,Puri,Nimapara,phc,Badaninigaon,,20.00115,85.93359,Y,Rural,Public
Odisha,Puri,Kakatpur,phc,Kakatpur,,20.00164,86.19804,Y,Rural,Public
Odisha,Kandhamal,Daringibadi,phc,Budaguda,,20.00294,83.94544,Y,Rural,Public
Odisha,Puri,Gop,phc,Nayahat,,20.00308,86.12867,Y,Rural,Public
Odisha,Nayagarh,Odagaon,phc,Kajallaipalli,,20.00509,85.12594,Y,Rural,Public
Odisha,Nayagarh,Ranapur,phc,Mayurajhalia,,20.00755,85.41029,Y,Rural,Public
Odisha,Nabarangapur,Raighar,phc,Turudihi,,20.00976,81.93477,Y,Rural,Public
Odisha,Puri,Astaranga,phc,Khandasahi,,20.01498,86.25061,Y,Rural,Public
Odisha,Nayagarh,Odagaon,phc,Kural,,20.01679,84.92691,Y,Rural,Public
Odisha,Puri,Delanga,phc,Gualipada,,20.01829,85.75409,Y,Rural,Public
Odisha,Ganjam,Bhanjanagar,phc,Mujagarh,,20.01941,84.51816,Y,Rural,Public
Odisha,Kandhamal,Raikia,phc,Sugudabadi,,20.02332,84.20853,Y,Rural,Public
Odisha,Ganjam,Jagannath prasad,phc,Alasu,,20.02379,84.83916,Y,Rural,Public
Odisha,Khordha,Tangi,phc,Rameswar,,20.02407,85.5204,Y,Rural,Public
Odisha,Nayagarh,Ranapur,phc,Majhiakhanda,,20.02701,85.33195,Y,Rural,Public
Odisha,Nayagarh,Odagaon,phc,Sunamuhin,,20.02912,84.88071,Y,Rural,Public
Odisha,Kalahandi,Narla,phc,Ullikupa,,20.03229,83.2443,Y,Rural,Public
Odisha,Khordha,Khurda,phc,Hadapada,,20.03288,85.58473,Y,Rural,Public
Odisha,Puri,Delanga,phc,Harirajpur,,20.03553,85.70435,Y,Rural,Public
Odisha,Puri,Delanga,phc,Kalyanpur,,20.03553,85.70435,Y,Rural,Public
Odisha,Puri,Nimapara,phc,Balanga,,20.03753,85.88718,Y,Rural,Public
Odisha,Jagatsinghpur,Balikuda,phc,Dasbatia,,20.03817,86.33012,Y,Rural,Public
Odisha,Nayagarh,Ranapur,phc,Damasahi,,20.04119,85.19453,Y,Rural,Public
Odisha,Khordha,Begunia,phc,Siko,,20.04395,85.42291,Y,Rural,Public
Odisha,Jagatsinghpur,Balikuda,phc,Tarashi,,20.04452,86.27882,Y,Rural,Public
Odisha,Puri,Pipili,phc,Kamakantia,,20.04483,85.8595,Y,Rural,Public
Odisha,Kandhamal,Tumudibandha,phc,Lankagada,,20.04514,83.63358,Y,Rural,Public
Odisha,Khordha,Begunia,phc,Haj,,20.0457,85.46899,Y,Rural,Public
Odisha,Nayagarh,Odagaon,phc,Godipada,,20.0463,85.16611,Y,Rural,Public
Odisha,Nayagarh,Odagaon,phc,Magarabandha,,20.04836,85.05889,Y,Rural,Public
Odisha,Kandhamal,K Nuagaon,phc,Jidubadi,,20.05213,84.11073,Y,Rural,Public
Odisha,Kandhamal,G. Udayagiri,phc,Khariapada,,20.0536,84.35641,Y,Rural,Public
Odisha,Kalahandi,Golamunda,phc,Uchhula,,20.0556,83.04284,Y,Rural,Public
Odisha,Nayagarh,Odagaon,phc,Dimisar,,20.05703,85.15792,Y,Rural,Public
Odisha,Kalahandi,Golamunda,phc,Golamunda,,20.05873,82.79427,Y,Rural,Public
Odisha,Kandhamal,Tumudibandha,phc,Kurtamgarh,,20.05958,83.75858,Y,Rural,Public
Odisha,Khordha,Tangi,phc,Olasingh,,20.06093,85.49409,Y,Rural,Public
Odisha,Cuttack,Niali,phc,Krushna Prasad,,20.06109,86.1275,Y,Rural,Public
Odisha,Jagatsinghpur,Naugaon,phc,Deriki,,20.06359,86.22511,Y,Rural,Public
Odisha,Kandhamal,Tumudibandha,phc,Sunagaon,,20.06561,83.66937,Y,Rural,Public
Odisha,Puri,Delanga,phc,Ghoradia,,20.06775,85.7797,Y,Rural,Public
Odisha,Jagatsinghpur,Balikuda,phc,Oskana,,20.06908,86.32029,Y,Rural,Public
Odisha,Jagatsinghpur,Balikuda,phc,Brahmandi,,20.06954,86.35602,Y,Rural,Public
Odisha,Jagatsinghpur,Balikuda,phc,Machhagaon,,20.07022,86.27987,Y,Rural,Public
Odisha,Khordha,Khurda,phc,Malipada,,20.07523,85.56525,Y,Rural,Public
Odisha,Nayagarh,Ranapur,phc,Darpanarayanpur,,20.0767,85.23713,Y,Rural,Public
Odisha,Kalahandi,Bhawanipatna,phc,Karlapada,,20.07958,83.10702,Y,Rural,Public
Odisha,Nayagarh,Nuagaon,phc,Bahadajhola (K Dakua),,20.0801,84.9178,Y,Rural,Public
Odisha,Nayagarh,Nayagarh,phc,Sankhei,,20.08107,85.17809,Y,Rural,Public
Odisha,Nayagarh,Nayagarh,phc,Kalikaprasad,,20.08433,85.14651,Y,Rural,Public
Odisha,Kalahandi,M. Rampur,phc,Barabandha,,20.08477,83.51646,Y,Rural,Public
Odisha,Kalahandi,Narla,phc,Rupra Road,,20.08543,83.33392,Y,Rural,Public
Odisha,Ganjam,Jagannath prasad,phc,Tarsingi,,20.09424,84.68445,Y,Rural,Public
Odisha,Khordha,Begunia,phc,Parichhala,,20.09632,85.52315,Y,Rural,Public
Odisha,Puri,Nimapara,phc,Rench Sasan,,20.09903,85.90436,Y,Rural,Public
Odisha,Nuapada,Sinapali,phc,Hatibandha,,20.09971,82.74508,Y,Rural,Public
Odisha,Nayagarh,Ranapur,phc,Taria,,20.10417,85.37826,Y,Rural,Public
Odisha,Khordha,Jatani,phc,Benapanjari,,20.10594,85.66642,Y,Rural,Public
Odisha,Kalahandi,Kesinga,phc,Utkela,,20.10614,83.17461,Y,Rural,Public
Odisha,Nayagarh,Nayagarh,phc,Lathipada,,20.10707,85.15991,Y,Rural,Public
Odisha,Nuapada,Sinapali,phc,Liad,,20.10979,82.79988,Y,Rural,Public
Odisha,Khordha,Khurda,phc,Bajapur,,20.11739,85.61687,Y,Rural,Public
Odisha,Kandhamal,K Nuagaon,phc,Kelamaha,,20.11854,84.19898,Y,Rural,Public
Odisha,Jagatsinghpur,Balikuda,phc,Borikina,,20.11945,86.32706,Y,Rural,Public
Odisha,Puri,Pipili,phc,KHORAPADA,,20.12017,85.8154,Y,Rural,Public
Odisha,Khordha,Balipatna,phc,Abhyamukhi,,20.12205,86.0201,Y,Rural,Public
Odisha,Khordha,Jatani,phc,Taraboi,,20.12585,85.64486,Y,Rural,Public
Odisha,Cuttack,Niali,phc,Bodargan,,20.12761,86.12806,Y,Rural,Public
Odisha,Khordha,Begunia,phc,Gudum,,20.13213,85.47844,Y,Rural,Public
Odisha,Nayagarh,Nayagarh,phc,Itamati,,20.13517,85.15636,Y,Rural,Public
Odisha,Kalahandi,Bhawanipatna,phc,Artal,,20.13551,83.0293,Y,Rural,Public
Odisha,Nuapada,Sinapali,phc,Timanpur,,20.13685,82.57777,Y,Rural,Public
Odisha,Kalahandi,Golamunda,phc,Bordi,,20.13792,82.90897,Y,Rural,Public
Odisha,Khordha,Balipatna,phc,Rajas,,20.13849,85.92492,Y,Rural,Public
Odisha,Kalahandi,M. Rampur,phc,Urladani,,20.13918,83.63681,Y,Rural,Public
Odisha,Kalahandi,Kesinga,phc,Kandel,,20.14237,83.2483,Y,Rural,Public
Odisha,Jagatsinghpur,Ersama,phc,Panchupalli,,20.14289,86.45413,Y,Rural,Public
Odisha,Khordha,Begunia,phc,Daltola,,20.14388,85.51915,Y,Rural,Public
Odisha,Kalahandi,Narla,phc,Rupra,,20.14444,83.35143,Y,Rural,Public
Odisha,Khordha,Bolgarh,phc,Talatumbha,,20.14632,85.42617,Y,Rural,Public
Odisha,Khordha,Bolgarh,phc,Deuli,,20.14678,85.40441,Y,Rural,Public
Odisha,Nuapada,Boden,phc,Karangamal,,20.15438,82.63316,Y,Rural,Public
Odisha,Puri,Pipili,phc,Satasankha,,20.15519,85.88998,Y,Rural,Public
Odisha,Cuttack,Niali,phc,Pahanga,,20.15565,86.13438,Y,Rural,Public
Odisha,Kandhamal,G. Udayagiri,phc,Kalinga,,20.16515,84.4144,Y,Rural,Public
Odisha,Kandhamal,Tikabali,phc,Paburia,,20.16603,84.25861,Y,Rural,Public
Odisha,Jagatsinghpur,Naugaon,phc,Alanahata,,20.16867,86.19965,Y,Rural,Public
Odisha,Khordha,Begunia,phc,Dingar,,20.16903,85.46877,Y,Rural,Public
Odisha,Khordha,Bolgarh,phc,Gaudanuagaon,,20.16978,85.43607,Y,Rural,Public
Odisha,Puri,Pipili,phc,Laxminarayanapur,,20.17006,85.87684,Y,Rural,Public
Odisha,Nayagarh,Nayagarh,phc,Balugaon,,20.17546,85.11556,Y,Rural,Public
Odisha,Khordha,Balipatna,phc,Banamalipur,,20.17667,86.011,Y,Rural,Public
Odisha,Nayagarh,Nuagaon,phc,Dimiripalli,,20.18407,84.84882,Y,Rural,Public
Odisha,Khordha,Khurda,phc,Mukundaprasad,,20.1842,85.63745,Y,Urban,Public
Odisha,Khordha,Khurda,phc,Nuabanta,,20.18555,85.61822,Y,Rural,Public
Odisha,Khordha,Bolgarh,phc,Pichukuli,,20.18646,85.38228,Y,Rural,Public
Odisha,Balangir,Titilagarh,phc,KURSUD,,20.18948,82.96388,Y,Rural,Public
Odisha,Khordha,Bolgarh,phc,Manikagoda,,20.19619,85.34235,Y,Rural,Public
Odisha,Khordha,Bhubaneswar,phc,Itipur,,20.19883,85.83551,Y,Rural,Public
Odisha,Khordha,Begunia,phc,Begunia,,20.19966,85.45888,Y,Rural,Public
Odisha,Cuttack,Niali,phc,Kasarda,,20.20579,86.08231,Y,Rural,Public
Odisha,Kandhamal,Tikabali,phc,Guttingia,,20.20772,84.18913,Y,Rural,Public
Odisha,Balangir,Titilagarh,phc,LUTHURBANDH,,20.21576,83.20831,Y,Rural,Public
Odisha,Kandhamal,Tikabali,phc,Ranjabradi,,20.21716,84.29459,Y,Rural,Public
Odisha,Jagatsinghpur,Jagatsinghpur,phc,Kaduapada,,20.21891,86.23248,Y,Rural,Public
Odisha,Khordha,Jatani,phc,Retanga,,20.21969,85.73659,Y,Rural,Public
Odisha,Khordha,Begunia,phc,Baghamari,,20.21973,85.50372,Y,Rural,Public
Odisha,Nayagarh,Dasapalla,phc,K K Nuagaon,,20.22028,84.58556,Y,Rural,Public
Odisha,Khordha,Balianta,phc,Sarakana,,20.22249,85.90915,Y,Rural,Public
Odisha,Kandhamal,Chakapada,phc,Naringijhola,,20.22367,84.5468,Y,Rural,Public
Odisha,Khordha,Jatani,phc,Janla,,20.224,85.71742,Y,Rural,Public
Odisha,Jagatsinghpur,Tirtol,phc,Badijanga,,20.2258,86.30585,Y,Rural,Public
Odisha,Jagatsinghpur,Tirtol,phc,Katra,,20.22907,86.27588,Y,Rural,Public
Odisha,Khordha,Bolgarh,phc,Maniabandha,,20.2293,85.40833,Y,Rural,Public
Odisha,Nuapada,Khariar,phc,Duajhar,,20.23256,82.75264,Y,Rural,Public
Odisha,Jagatsinghpur,Ersama,phc,Dihasai,,20.23475,86.42986,Y,Rural,Public
Odisha,Jagatsinghpur,Ersama,phc,Malipur,,20.23513,86.44729,Y,Rural,Public
Odisha,Nayagarh,Bhapur,phc,Baghuapalli,,20.23582,85.21313,Y,Rural,Public
Odisha,Jagatsinghpur,Ersama,phc,Dhinkia,,20.23667,86.57375,Y,Rural,Public
Odisha,Khordha,Dist Level Facility,phc,Zonal Dispensary Unit 9,,20.23755,85.83304,Y,Urban,Public
Odisha,Jagatsinghpur,Tirtol,phc,Jaganathpur,,20.23839,86.34501,Y,Rural,Public
Odisha,Jagatsinghpur,Ersama,phc,Balitutha,,20.24075,86.52994,Y,Rural,Public
Odisha,Khordha,Khurda,phc,Keranga,,20.24222,85.5695,Y,Rural,Public
Odisha,Khordha,Dist Level Facility,phc,Zonal Dispensary Unit 9 Flat,,20.24252,85.79665,Y,Urban,Public
Odisha,Nayagarh,Bhapur,phc,Nimani,,20.24455,85.27122,Y,Rural,Public
Odisha,Kalahandi,Narla,phc,Palam,,20.24698,83.4121,Y,Rural,Public
Odisha,Khordha,Begunia,phc,Podadiha,,20.24789,85.51073,Y,Rural,Public
Odisha,Kandhamal,Baliguda,phc,Sindirigaon,,20.24884,83.94342,Y,Rural,Public
Odisha,Jagatsinghpur,Jagatsinghpur,phc,Salajanga,,20.24918,86.12975,Y,Rural,Public
Odisha,Khordha,Balianta,phc,Bhingarpur,,20.25174,85.83084,Y,Rural,Public
Odisha,Jagatsinghpur,Jagatsinghpur,phc,Piteipur,,20.25221,86.23169,Y,Rural,Public
Odisha,Nayagarh,Nuagaon,phc,Nuagaon,,20.25234,84.97042,Y,Rural,Public
Odisha,Jagatsinghpur,Kujanga,phc,Gorada,,20.25587,86.38525,Y,Rural,Public
Odisha,Khordha,Dist Level Facility,phc,Zonal Dispensary Unit 8,,20.25751,85.84586,Y,Urban,Public
Odisha,Khordha,Begunia,phc,Kantabada,,20.25936,85.44988,Y,Rural,Public
Odisha,Balangir,Muribahal,phc,Lebeda,,20.26195,83.02295,Y,Rural,Public
Odisha,Khordha,Dist Level Facility,phc,TBMAC,,20.26271,85.83344,Y,Urban,Public
Odisha,Kandhamal,Baliguda,phc,Sudra,,20.26337,83.77407,Y,Rural,Public
Odisha,Nuapada,Khariar,phc,Tukla,,20.26405,82.83998,Y,Rural,Public
Odisha,Khordha,Dist Level Facility,phc,Secretariate Zonal Dispensary,,20.26488,85.83426,Y,Urban,Public
Odisha,Jagatsinghpur,Kujanga,phc,Potanai,,20.26697,86.46958,Y,Rural,Public
Odisha,Nuapada,Khariar,phc,Lanji,,20.26824,82.67535,Y,Rural,Public
Odisha,Cuttack,KANTAPADA,phc,Govindpur,,20.27019,86.03183,Y,Rural,Public
Odisha,Nayagarh,Khandapada,phc,Banamalipur,,20.27051,85.21307,Y,Rural,Public
Odisha,Khordha,Dist Level Facility,phc,Zonal Dispensary IRC Village,,20.27098,85.80061,Y,Urban,Public
Odisha,Khordha,Dist Level Facility,phc,Zonal Dispensary Dumduma,,20.27188,85.85846,Y,Urban,Public
Odisha,Khordha,Dist Level Facility,phc,Zonal Dispensary Unit 3,,20.27509,85.81155,Y,Urban,Public
Odisha,Kandhamal,Chakapada,phc,Possara,,20.27518,84.45061,Y,Rural,Public
Odisha,Khordha,Dist Level Facility,phc,Assembly Zonal Dispensary,,20.276,85.84687,Y,Urban,Public
Odisha,Khordha,Dist Level Facility,phc,Kalpana Dispensary Kalpana Square,,20.27829,85.841,Y,Urban,Public
Odisha,Khordha,Dist Level Facility,phc,Zonal Dispensary Saheed Nagar,,20.2796,85.8469,Y,Urban,Public
Odisha,Khordha,Dist Level Facility,phc,Govt Dispensary Baramunda,,20.28037,85.84302,Y,Urban,Public
Odisha,Balangir,Titilagarh,phc,BIJEPUR,,20.28176,83.25984,Y,Rural,Public
Odisha,Khordha,Balianta,phc,Benupur,,20.28196,85.90452,Y,Rural,Public
Odisha,Jagatsinghpur,Tirtol,phc,Kanakapur,,20.28198,86.29361,Y,Rural,Public
Odisha,Balangir,Titilagarh,phc,Bhatipada,,20.2844,83.1412,Y,Rural,Public
Odisha,Jagatsinghpur,Tirtol,phc,Sanara,,20.28456,86.24249,Y,Rural,Public
Odisha,Cuttack,SUBARNAPUR,phc,Kalapathar,,20.28629,85.3841,Y,Rural,Public
Odisha,Khordha,Dist Level Facility,phc,Sisubhaban Dispensary,,20.28904,85.84749,Y,Urban,Public
Odisha,Balangir,Bangomunda,phc,Chuliphunka,,20.29125,82.89149,Y,Rural,Public
Odisha,Jagatsinghpur,Jagatsinghpur,phc,Palasola,,20.29303,86.18143,Y,Rural,Public
Odisha,Khordha,Dist Level Facility,phc,Zonal Dispensary Satya Nagar,,20.29388,85.80292,Y,Urban,Public
Odisha,Jagatsinghpur,Biridi,phc,Bagalpur,,20.29429,86.08977,Y,Rural,Public
Odisha,Nuapada,Boden,phc,BHAINSADANI,,20.298629,82.513695,Y,Rural,Public
Odisha,Jagatsinghpur,Kujanga,phc,Pankapal,,20.30048,86.44534,Y,Rural,Public
Odisha,Jagatsinghpur,Kujanga,phc,Rahama,,20.30177,86.39041,Y,Rural,Public
Odisha,Kalahandi,Karlamunda,phc,Regeda,,20.30186,83.45143,Y,Rural,Public
Odisha,Nayagarh,Khandapada,phc,Biruda,,20.30448,85.10886,Y,Rural,Public
Odisha,Jagatsinghpur,Kujanga,phc,Malahunka,,20.30664,86.60765,Y,Rural,Public
Odisha,Cuttack,Dampada,phc,Tulasipur,,20.30691,85.52573,Y,Rural,Public
Odisha,Cuttack,KANTAPADA,phc,Sailo Badabil,,20.30707,86.00498,Y,Rural,Public
Odisha,Jagatsinghpur,Raghunathpur,phc,Tarikund,,20.30829,86.12862,Y,Rural,Public
Odisha,Kalahandi,M. Rampur,phc,Madanpur,,20.30841,83.53628,Y,Rural,Public
Odisha,Nayagarh,Dasapalla,phc,Chadheiyapalli,,20.30994,84.64244,Y,Rural,Public
Odisha,Balangir,Saintala,phc,BELGAON,,20.31556,83.31783,Y,Rural,Public
Odisha,Jagatsinghpur,Raghunathpur,phc,Redhua,,20.31736,86.21016,Y,Rural,Public
Odisha,Kandhamal,Phiringia,phc,Nuapadar,,20.32063,84.03787,Y,Rural,Public
Odisha,Nayagarh,Nuagaon,phc,Jaganathprasad,,20.32166,84.94892,Y,Rural,Public
Odisha,Cuttack,SUBARNAPUR,phc,Baraput,,20.3231,85.43908,Y,Rural,Public
Odisha,Jagatsinghpur,Kujanga,phc,Hansura,,20.32512,86.42387,Y,Rural,Public
Odisha,Jagatsinghpur,Raghunathpur,phc,Jaipur,,20.3304,86.26923,Y,Rural,Public
Odisha,Jagatsinghpur,Tirtol,phc,Kolar,,20.33088,86.38148,Y,Rural,Public
Odisha,Khordha,Dist Level Facility,phc,Zonal Dispensary Chandrasekharpur,,20.33155,85.82558,Y,Urban,Public
Odisha,Cuttack,SUBARNAPUR,phc,Brahmapura,,20.33282,85.47134,Y,Rural,Public
Odisha,Nuapada,Boden,phc,Damjhar,,20.33286,82.67229,Y,Rural,Public
Odisha,Jagatsinghpur,Tirtol,phc,Kanimul,,20.33394,86.30247,Y,Rural,Public
Odisha,Jagatsinghpur,Biridi,phc,Adhangagarh,,20.33562,86.11246,Y,Rural,Public
Odisha,Kendrapara,Mahakalapada,phc,Batighar,,20.33818,86.74355,Y,Rural,Public
Odisha,Nayagarh,Bhapur,phc,Padmabati,,20.33822,85.30683,Y,Rural,Public
Odisha,Cuttack,Dampada,phc,Talabasta,,20.33965,85.5831,Y,Rural,Public
Odisha,Kalahandi,M. Rampur,phc,Mohangiri,,20.34232,83.67502,Y,Rural,Public
Odisha,Balangir,Bangomunda,phc,Bangomunda,,20.34273,82.91407,Y,Rural,Public
Odisha,Khordha,Balianta,phc,PHC N Pahal,,20.3434,85.88563,Y,Urban,Public
Odisha,Khordha,Bhubaneswar,phc,Zonal Dispensary Patia,,20.344067,85.830704,Y,Urban,Public
Odisha,Balangir,Bangomunda,phc,Bhalumunda,,20.34438,82.84769,Y,Rural,Public
Odisha,Kalahandi,Kesinga,phc,Belkhandi,,20.34443,83.39977,Y,Rural,Public
Odisha,Kendrapara,Mahakalapada,phc,Tikhiri,,20.35006,86.48232,Y,Rural,Public
Odisha,Nayagarh,Dasapalla,phc,Kujamendhi,,20.35006,84.51739,Y,Rural,Public
Odisha,Cuttack,SUBARNAPUR,phc,Baideswar,,20.35487,85.38581,Y,Rural,Public
Odisha,Kendrapara,Mahakalapada,phc,Ramnagar,,20.35488,86.67908,Y,Rural,Public
Odisha,Kendrapara,Marsaghai,phc,Pailo,,20.35488,86.41932,Y,Rural,Public
Odisha,Balangir,Muribahal,phc,Patrapali,,20.35614,82.95708,Y,Rural,Public
Odisha,Jagatsinghpur,Tirtol,phc,Krishnanandapur,,20.35832,86.2588,Y,Rural,Public
Odisha,Kandhamal,Chakapada,phc,Linepada,,20.35844,84.36403,Y,Rural,Public
Odisha,Cuttack,Baranga,phc,Korkara,,20.35902,85.99997,Y,Rural,Public
Odisha,Nayagarh,Khandapada,phc,Kumbharapada,,20.36026,85.02422,Y,Rural,Public
Odisha,Nayagarh,Gania,phc,Adakata,,20.36039,84.98495,Y,Rural,Public
Odisha,Nayagarh,Khandapada,phc,Kantilo,,20.36089,85.19975,Y,Rural,Public
Odisha,Balangir,Bangomunda,phc,Belpada,,20.36395,82.8555,Y,Rural,Public
Odisha,Khordha,Bhubaneswar,phc,Chandaka,,20.36544,85.76906,Y,Rural,Public
Odisha,Balangir,Saintala,phc,GHUNSAR,,20.36684,83.37775,Y,Rural,Public
Odisha,Cuttack,Cuttack,phc,Telengapentha,,20.36691,85.8908,Y,Rural,Public
Odisha,Nayagarh,Khandapada,phc,Rayati Dholomara,,20.36785,85.03954,Y,Rural,Public
Odisha,Kandhamal,Baliguda,phc,Khomankhole,,20.37593,83.73738,Y,Rural,Public
Odisha,Cuttack,Cuttack,phc,Arada,,20.37768,85.93367,Y,Rural,Public
Odisha,Kendrapara,Patkura,phc,Teyndakuda,,20.37813,86.26419,Y,Rural,Public
Odisha,Kendrapara,Patkura,phc,Garadpur,,20.38435,86.37817,Y,Rural,Public
Odisha,Cuttack,Baramba,phc,Gopinathpur,,20.38523,85.37453,Y,Rural,Public
Odisha,Cuttack,Baramba,phc,Bangurisingh,,20.387094,85.455205,Y,Rural,Public
Odisha,Jagatsinghpur,Raghunathpur,phc,Uttarkul,,20.388,86.23427,Y,Rural,Public
Odisha,Nayagarh,Dasapalla,phc,Takera,,20.39055,84.75527,Y,Rural,Public
Odisha,Kalahandi,Karlamunda,phc,Risida,,20.39391,83.46716,Y,Rural,Public
Odisha,Nayagarh,Dasapalla,phc,Banigochha,,20.39622,84.58573,Y,Rural,Public
Odisha,Kalahandi,Karlamunda,phc,Teresinga,,20.3976,83.43931,Y,Rural,Public
Odisha,Kendrapara,Mahakalapada,phc,Badkul,,20.40149,86.52706,Y,Rural,Public
Odisha,Kendrapara,Patkura,phc,Korua,,20.40281,86.33806,Y,Rural,Public
Odisha,Kendrapara,Patkura,phc,Madhusashan,,20.403292,86.273239,Y,Rural,Public
Odisha,Cuttack,Baramba,phc,Khariamoda,,20.40384,85.3115,Y,Rural,Public
Odisha,Cuttack,Cuttack,phc,Kandarpur,,20.40389,86.01382,Y,Rural,Public
Odisha,Cuttack,Nischintakoil,phc,Nagaspur,,20.41052,86.20232,Y,Rural,Public
Odisha,Cuttack,Baranga,phc,Baranga,,20.41072,85.82987,Y,Rural,Public
Odisha,Kandhamal,Phiringia,phc,Panga,,20.41432,83.87923,Y,Rural,Public
Odisha,Cuttack,Narsinghapur,phc,Ekdal,,20.41508,85.13681,Y,Rural,Public
Odisha,Kandhamal,Phulbani,phc,Bisipada,,20.41721,84.19739,Y,Rural,Public
Odisha,Cuttack,Nischintakoil,phc,Saantapur,,20.42084,86.17477,Y,Rural,Public
Odisha,Cuttack,Tigiria,phc,Badanauput,,20.42889,85.53051,Y,Rural,Public
Odisha,Kendrapara,Marsaghai,phc,Rankala Raghunathpur,,20.43175,86.40894,Y,Rural,Public
Odisha,Cuttack,Nischintakoil,phc,Orti,,20.43236,86.26409,Y,Rural,Public
Odisha,Kandhamal,Khajuripada,phc,Barikumpa,,20.43298,84.30302,Y,Rural,Public
Odisha,Nayagarh,Gania,phc,Chhamundia,,20.43451,85.01832,Y,Rural,Public
Odisha,Kendrapara,Mahakalapada,phc,Bijayanagar,,20.44012,86.61366,Y,Rural,Public
Odisha,Cuttack,Baranga,phc,Mundali,,20.44236,85.75587,Y,Rural,Public
Odisha,Baudh,Kantamal,phc,Khuntigora,,20.44616,83.67629,Y,Rural,Public
Odisha,Cuttack,Tigiria,phc,Nuapatna,,20.44637,85.47267,Y,Rural,Public
Odisha,Balangir,Muribahal,phc,Gudighat,,20.44897,83.05053,Y,Rural,Public
Odisha,Kandhamal,Phulbani,phc,Arapaju,,20.45017,84.16852,Y,Rural,Public
Odisha,Cuttack,Nischintakoil,phc,Handibhanga,,20.451959,86.262315,Y,Rural,Public
Odisha,Kendrapara,Marsaghai,phc,Karilopatna,,20.45272,86.36023,Y,Rural,Public
Odisha,Cuttack,Cuttack,phc,Kishore Nagar,,20.45279,85.92559,Y,Rural,Public
Odisha,Cuttack,Dist Level Facility,phc,High Court Dispensary,,20.453426,85.903286,Y,Urban,Public
Odisha,Kendrapara,Kendrapara,phc,Kalapada,,20.45352,86.44057,Y,Rural,Public
Odisha,Kendrapara,Derabis,phc,Harianka,,20.45542,86.3034,Y,Rural,Public
Odisha,Kendrapara,Mahakalapada,phc,RKT,,20.45746,86.67719,Y,Rural,Public
Odisha,Cuttack,Cuttack,phc,Subhadrapur,,20.45845,85.8688,Y,Rural,Public
Odisha,Kendrapara,Marsaghai,phc,Kurtunga,,20.45895,86.48499,Y,Rural,Public
Odisha,Cuttack,Dist Level Facility,phc,Nuabazar ZD,,20.459585,85.922089,Y,Urban,Public
Odisha,Cuttack,Athagarh,phc,Jagiapada,,20.46101,85.55724,Y,Rural,Public
Odisha,Cuttack,Dist Level Facility,phc,Tulasipur ZD,,20.46245,85.86171,Y,Urban,Public
Odisha,Kendrapara,Marsaghai,phc,Nanakar,,20.46384,86.35012,Y,Rural,Public
Odisha,Cuttack,Narsinghapur,phc,Sagar,,20.46492,85.13745,Y,Rural,Public
Odisha,Cuttack,Salepur,phc,Tentol,,20.46579,86.04999,Y,Rural,Public
Odisha,Cuttack,Nischintakoil,phc,Asureswar,,20.46887,86.25679,Y,Rural,Public
Odisha,Kandhamal,Phiringia,phc,Gochapada,,20.47342,83.99761,Y,Rural,Public
Odisha,Kendrapara,Derabis,phc,Danpur,,20.47501,86.30054,Y,Rural,Public
Odisha,Nayagarh,Gania,phc,Rasanga,,20.47661,84.94132,Y,Rural,Public
Odisha,Cuttack,Dist Level Facility,phc,Revenshaw Dispensary,,20.479047,85.83876,Y,Urban,Public
Odisha,Kandhamal,Phulbani,phc,Katringia,,20.47973,84.08782,Y,Rural,Public
Odisha,Cuttack,Salepur,phc,Subarnapur,,20.481388,85.953835,Y,Rural,Public
Odisha,Cuttack,Dist Level Facility,phc,Lokaseva Hospital Dewan Bazar ZD,,20.481419,85.813614,Y,Urban,Public
Odisha,Kendrapara,Mahakalapada,phc,Babar,,20.48491,86.65331,Y,Rural,Public
Odisha,Balangir,Gudvela,phc,Tusra,,20.48539,83.4884,Y,Rural,Public
Odisha,Cuttack,Dist Level Facility,phc,Govt Press Dispensary,,20.485689,85.920367,Y,Urban,Public
Odisha,Baudh,Harbhanga,phc,Talagaon,,20.48767,84.62484,Y,Rural,Public
Odisha,Kendrapara,Derabis,phc,Chandol,,20.49421,86.29462,Y,Rural,Public
Odisha,Cuttack,Dist Level Facility,phc,ITI Dispansary,,20.495179,85.863906,Y,Urban,Public
Odisha,Cuttack,Salepur,phc,Padmapur,,20.4957,85.98151,Y,Rural,Public
Odisha,Cuttack,Athagarh,phc,Jenapada,,20.49757,85.55753,Y,Rural,Public
Odisha,Kandhamal,Phiringia,phc,Balandapada,,20.5003,83.86596,Y,Rural,Public
Odisha,Kendrapara,Pattamundai,phc,Sanjaria,,20.5017,86.57354,Y,Rural,Public
Odisha,Balangir,Turekela,phc,Baddukela,,20.50176,82.73656,Y,Rural,Public
Odisha,Balangir,Saintala,phc,TIKRAPARA,,20.50402,83.12973,Y,Rural,Public
Odisha,Kendrapara,Kendrapara,phc,Balia,,20.50558,86.34736,Y,Rural,Public
Odisha,Kendrapara,Pattamundai,phc,Badpada,,20.50701,86.60566,Y,Rural,Public
Odisha,Nuapada,Komna,phc,Sunabeda,,20.51013,82.45768,Y,Rural,Public
Odisha,Kendrapara,Kendrapara,phc,Ayeba,,20.51312,86.53098,Y,Rural,Public
Odisha,Cuttack,Tangichoudwar,phc,Sanitota,,20.5158,85.95067,Y,Rural,Public
Odisha,Cuttack,Mahanga,phc,Bhadreswar,,20.51609,86.23738,Y,Rural,Public
Odisha,Cuttack,Tangichoudwar,phc,Kayalpada,,20.51713,85.84936,Y,Rural,Public
Odisha,Cuttack,Mahanga,phc,Jagannathpur,,20.51778,86.17735,Y,Rural,Public
Odisha,Cuttack,Tangichoudwar,phc,Bhagatpur,,20.51985,85.91148,Y,Rural,Public
Odisha,Cuttack,Tigiria,phc,Viruda,,20.52064,85.53104,Y,Rural,Public
Odisha,Cuttack,Salepur,phc,Kundipadia,,20.52379,86.09246,Y,Rural,Public
Odisha,Cuttack,Salepur,phc,Raisuguda,,20.52577,86.14465,Y,Rural,Public
Odisha,Balangir,Belpara,phc,Suleikela,,20.52787,83.04061,Y,Rural,Public
Odisha,Cuttack,Athagarh,phc,Joranda,,20.5281,85.66409,Y,Rural,Public
Odisha,Cuttack,Tigiria,phc,Achalkot,,20.52883,85.51054,Y,Rural,Public
Odisha,Dhenkanal,Dhenkanal,phc,Dhirapatna,,20.529,85.55741,Y,Rural,Public
Odisha,Cuttack,Tangichoudwar,phc,Bhatimunda,,20.53099,86.02541,Y,Rural,Public
Odisha,Kandhamal,Khajuripada,phc,Sudrukumpa,,20.53372,84.30602,Y,Rural,Public
Odisha,Cuttack,Salepur,phc,Rameswar,,20.53572,86.06129,Y,Rural,Public
Odisha,Balangir,Deogaon,phc,Arjunpur,,20.54012,83.57321,Y,Rural,Public
Odisha,Dhenkanal,Odapada,phc,Kalanga,,20.54506,85.4147,Y,Rural,Public
Odisha,Baudh,Kantamal,phc,Ghantapada,,20.54812,83.67112,Y,Rural,Public
Odisha,Kendrapara,Pattamundai,phc,Chandannagar,,20.54964,86.65458,Y,Rural,Public
Odisha,Kendrapara,Derabis,phc,Santhapura,,20.55528,86.37871,Y,Rural,Public
Odisha,Cuttack,Mahanga,phc,Erkana,,20.55899,86.23781,Y,Rural,Public
Odisha,Cuttack,Athagarh,phc,Khuntuni,,20.5625,85.73096,Y,Rural,Public
Odisha,Sonapur,Tarva,phc,Charbhatta,,20.5644,83.62037,Y,Rural,Public
Odisha,Dhenkanal,Dhenkanal,phc,Bhapur,,20.56461,85.48497,Y,Rural,Public
Odisha,Kendrapara,Derabis,phc,Biranilakanthpur,,20.56551,86.37378,Y,Rural,Public
Odisha,Cuttack,Athagarh,phc,Gurudijhatia,,20.56919,85.81115,Y,Rural,Public
Odisha,Cuttack,Narsinghapur,phc,Debabhuin,,20.57004,85.1688,Y,Rural,Public
Odisha,Balangir,Belpara,phc,Mandal,,20.57063,83.01803,Y,Rural,Public
Odisha,Cuttack,Mahanga,phc,Nrutanga,,20.5752,86.14951,Y,Rural,Public
Odisha,Baudh,Harbhanga,phc,Charichhak,,20.58,84.41,Y,Rural,Public
Odisha,Nuapada,Komna,phc,Budhikomna,,20.58743,82.67508,Y,Rural,Public
Odisha,Dhenkanal,Dhenkanal,phc,Baladiabandha,,20.594807,85.64831,Y,Rural,Public
Odisha,Balangir,Deogaon,phc,Bandhpara,,20.59882,83.27661,Y,Rural,Public
Odisha,Cuttack,Mahanga,phc,Samsarpur,,20.60107,86.10587,Y,Rural,Public
Odisha,Cuttack,Mahanga,phc,Nadiasahaspur,,20.60145,86.23328,Y,Rural,Public
Odisha,Kendrapara,Kendrapara,phc,Chandanpur,,20.60202,86.49602,Y,Rural,Public
Odisha,Cuttack,Tangichoudwar,phc,Mangarajpur,,20.60304,85.88779,Y,Rural,Public
Odisha,Jajapur,Barachana,phc,Baujanga,,20.60497,86.25856,Y,Rural,Public
Odisha,Balangir,Balangir,phc,Kudasingha,,20.606958,83.359524,Y,Rural,Public
Odisha,Kendrapara,Pattamundai,phc,Tulasidiha,,20.60933,86.46147,Y,Rural,Public
Odisha,Jajapur,Barachana,phc,Chhatia,,20.61087,86.07008,Y,Rural,Public
Odisha,Balangir,Belpara,phc,Khalipathar,,20.61257,83.06406,Y,Rural,Public
Odisha,Nuapada,Komna,phc,Darlipada,,20.61375,82.57047,Y,Rural,Public
Odisha,Kendrapara,Rajnagar,phc,Jagannathpur Sashan,,20.61875,86.70498,Y,Rural,Public
Odisha,Balangir,Puintala,phc,Mahimunda,,20.62026,83.55961,Y,Rural,Public
Odisha,Cuttack,Mahanga,phc,Basudevpur,,20.62439,86.15209,Y,Rural,Public
Odisha,Baudh,Harbhanga,phc,Harbhanga,,20.62515,84.61923,Y,Rural,Public
Odisha,Dhenkanal,Hindol,phc,Rasola,,20.6257,85.32392,Y,Rural,Public
Odisha,Kendrapara,Pattamundai,phc,Andara,,20.62869,86.50082,Y,Rural,Public
Odisha,Balangir,Khaprakhol,phc,Lathor,,20.63049,82.76578,Y,Rural,Public
Odisha,Kendrapara,Aul,phc,Batipada,,20.6317,86.56791,Y,Rural,Public
Odisha,Kendrapara,Pattamundai,phc,Alpua,,20.63252,86.44114,Y,Rural,Public
Odisha,Jajapur,Bari,phc,Krushnagara,,20.63278,86.39472,Y,Rural,Public
Odisha,Balangir,Deogaon,phc,Ramchandrapur,,20.63526,83.22636,Y,Rural,Public
Odisha,Kendrapara,Aul,phc,Dasipur,,20.63583,86.66259,Y,Rural,Public
Odisha,Kendrapara,Aul,phc,Sanmanga,,20.63803,86.56165,Y,Rural,Public
Odisha,Kandhamal,Khajuripada,phc,Billabadi,,20.63841,84.33181,Y,Rural,Public
Odisha,Jajapur,Bari,phc,Ratnagiri,,20.63987,86.33882,Y,Rural,Public
Odisha,Nuapada,Komna,phc,Tarbod,,20.64006,82.60954,Y,Rural,Public
Odisha,Jajapur,Barachana,phc,Gopalpur,,20.64104,86.28369,Y,Rural,Public
Odisha,Cuttack,Tangichoudwar,phc,Sofa,,20.64196,85.96096,Y,Rural,Public
Odisha,Anugul,Angul,phc,Purunakote,,20.64284,84.83925,Y,Rural,Public
Odisha,Kendrapara,Rajnagar,phc,Gupti,,20.64328,86.8627,Y,Rural,Public
Odisha,Jajapur,Bari,phc,Kalamatia (Sahidpitha),,20.64509,86.41015,Y,Rural,Public
Odisha,Sonapur,Tarva,phc,Kamsara,,20.65035,83.63651,Y,Rural,Public
Odisha,Jajapur,Barachana,phc,Udayagiri,,20.65181,86.14104,Y,Rural,Public
Odisha,Kendrapara,Aul,phc,Palimi,,20.65216,86.47244,Y,Rural,Public
Odisha,Anugul,Athamallik,phc,Pataka,,20.65442,84.63024,Y,Rural,Public
Odisha,Jajapur,Barachana,phc,Bantala,,20.65443,86.075,Y,Rural,Public
Odisha,Kendrapara,Rajkanika,phc,Katna,,20.65945,86.75787,Y,Rural,Public
Odisha,Kendrapara,Aul,phc,Mahoo,,20.65996,86.71228,Y,Rural,Public
Odisha,Jajapur,Bari,phc,Angalo,,20.66188,86.4517,Y,Rural,Public
Odisha,Balangir,Balangir,phc,Sibatala,,20.66483,83.32346,Y,Rural,Public
Odisha,Anugul,Angul,phc,Purunagarh,,20.67406,85.08954,Y,Rural,Public
Odisha,Dhenkanal,Odapada,phc,Balarampur,,20.67635,85.4947,Y,Rural,Public
Odisha,Jajapur,Barachana,phc,Birupagenguti,,20.6768,86.20976,Y,Rural,Public
Odisha,Kendrapara,Aul,phc,Govindpur,,20.67986,86.5039,Y,Rural,Public
Odisha,Jajapur,Binjharpur,phc,Kantipur,,20.68341,86.42206,Y,Rural,Public
Odisha,Kendrapara,Rajkanika,phc,Koilpur,,20.68585,86.7868,Y,Rural,Public
Odisha,Dhenkanal,Hindol,phc,Dudurakot,,20.68983,85.26433,Y,Rural,Public
Odisha,Jajapur,Bari,phc,Balia,,20.68997,86.30436,Y,Rural,Public
Odisha,Dhenkanal,Hindol,phc,Hatura,,20.69015,85.21233,Y,Rural,Public
Odisha,Dhenkanal,Gondia,phc,Deogan,,20.69537,85.74825,Y,Rural,Public
Odisha,Kendrapara,Rajnagar,phc,Iswarpur,,20.6969,86.82669,Y,Rural,Public
Odisha,Jajapur,Dharmasala,phc,Arabala,,20.69735,86.24678,Y,Rural,Public
Odisha,Baudh,Harbhanga,phc,Dhalapur,,20.69735,84.49179,Y,Rural,Public
Odisha,Jajapur,Binjharpur,phc,Jari,,20.6987,86.52782,Y,Rural,Public
Odisha,Anugul,Angul,phc,Banamira,,20.69903,85.08789,Y,Rural,Public
Odisha,Baudh,Boudh,phc,Ambajhari,,20.69986,84.11906,Y,Rural,Public
Odisha,Baudh,Boudh,phc,Sagada,,20.69986,84.11906,Y,Rural,Public
Odisha,Jajapur,Barachana,phc,Baunsamuli,,20.70687,86.00647,Y,Rural,Public
Odisha,Balangir,Patnagarh,phc,Bhainsa,,20.708,83.21884,Y,Rural,Public
Odisha,Jajapur,Barachana,phc,Darpani,,20.70855,86.07243,Y,Rural,Public
Odisha,Jajapur,Dharmasala,phc,Kotapur,,20.71062,86.22322,Y,Rural,Public
Odisha,Jajapur,Barachana,phc,Kolasingh,,20.71764,86.04477,Y,Rural,Public
Odisha,Anugul,Angul,phc,Jagannath Pur,,20.71968,84.87106,Y,Rural,Public
Odisha,Baudh,Kantamal,phc,Palsagora,,20.72,83.8,Y,Rural,Public
Odisha,Balangir,Belpara,phc,Gambhari,,20.72013,82.93868,Y,Rural,Public
Odisha,Kendrapara,Rajkanika,phc,Kandiahat,,20.72057,86.56473,Y,Rural,Public
Odisha,Baudh,Boudh,phc,Baghiapada,,20.72198,84.23639,Y,Rural,Public
Odisha,Anugul,Banarapal,phc,Talmul,,20.72334,85.19378,Y,Rural,Public
Odisha,Balangir,Puintala,phc,MALMUNDA,,20.72462,83.54617,Y,Rural,Public
Odisha,Balangir,Patnagarh,phc,Solabandh,,20.72506,83.07505,Y,Rural,Public
Odisha,Dhenkanal,Dhenkanal,phc,Tarabha,,20.72663,85.60364,Y,Rural,Public
Odisha,Dhenkanal,Hindol,phc,Bedapada,,20.72767,85.40669,Y,Rural,Public
Odisha,Kendrapara,Rajkanika,phc,Olavar,,20.72835,86.66062,Y,Rural,Public
Odisha,Dhenkanal,Gondia,phc,Khankira,,20.73182,85.95284,Y,Rural,Public
Odisha,Nuapada,Nuapada,phc,Dharambandha,,20.7335,82.42027,Y,Rural,Public
Odisha,Jajapur,Dharmasala,phc,Aruha,,20.73396,86.10267,Y,Rural,Public
Odisha,Jajapur,Binjharpur,phc,Haladidiha,,20.73967,86.52095,Y,Rural,Public
Odisha,Jajapur,Binjharpur,phc,Ramachandrapur,,20.73983,86.41982,Y,Rural,Public
Odisha,Balangir,Balangir,phc,Bhundimuhan,,20.74129,83.26273,Y,Rural,Public
Odisha,Jajapur,Rasalpur,phc,Brahmabarada,,20.74525,86.24483,Y,Rural,Public
Odisha,Jajapur,Binjharpur,phc,Barpada,,20.74529,86.43494,Y,Rural,Public
Odisha,Kendrapara,Rajnagar,phc,Dangamal,,20.75529,86.86457,Y,Rural,Public
Odisha,Anugul,Angul,phc,Tainsi,,20.75538,84.81567,Y,Rural,Public
Odisha,Kendrapara,Rajnagar,phc,Talchua,,20.75563,86.93822,Y,Rural,Public
Odisha,Dhenkanal,Odapada,phc,Nimidha,,20.75666,85.34184,Y,Rural,Public
Odisha,Jajapur,Binjharpur,phc,Pritipur,,20.76191,86.472,Y,Rural,Public
Odisha,Jajapur,Dharmasala,phc,Gangadharpur (J Kalicharan),,20.7628,86.12817,Y,Rural,Public
Odisha,Balangir,Puintala,phc,Thelkomunda,,20.76385,83.64906,Y,Rural,Public
Odisha,Dhenkanal,Hindol,phc,Paika Puruna Kota,,20.76743,85.24043,Y,Rural,Public
Odisha,Jajapur,Dharmasala,phc,Haridaspur (Rama Devi Govt Hospital),,20.77046,86.0811,Y,Rural,Public
Odisha,Jajapur,Rasalpur,phc,Kundapatana,,20.77104,86.21951,Y,Rural,Public
Odisha,Jajapur,Jajpur,phc,Sujanpur,,20.77545,86.30157,Y,Rural,Public
Odisha,Bhadrak,Chandabali,phc,Orasahi,,20.7809,86.81448,Y,Rural,Public
Odisha,Dhenkanal,Dhenkanal,phc,Banasingh,,20.7828,85.64397,Y,Rural,Public
Odisha,Balangir,Patnagarh,phc,Tamian,,20.78312,83.23226,Y,Rural,Public
Odisha,Baudh,Boudh,phc,Mundapada,,20.785864,84.1939,Y,Rural,Public
Odisha,Dhenkanal,Dhenkanal,phc,Sankarpur,,20.7867,85.63506,Y,Rural,Public
Odisha,Dhenkanal,Gondia,phc,Joranda,,20.78776,85.72739,Y,Rural,Public
Odisha,Jajapur,Binjharpur,phc,Uttangara,,20.7883,86.43176,Y,Rural,Public
Odisha,Dhenkanal,Odapada,phc,Meramundali,,20.78899,85.32843,Y,Rural,Public
Odisha,Jajapur,Dharmasala,phc,Gadamadhupur,,20.79103,86.09391,Y,Rural,Public
Odisha,Balangir,Loisingha,phc,Kusmel,,20.79578,83.4098,Y,Rural,Public
Odisha,Balangir,Khaprakhol,phc,Dhandamunda,,20.79626,82.93211,Y,Rural,Public
Odisha,Jajapur,Dasarathpur,phc,Kayangola,,20.7966,86.61208,Y,Rural,Public
Odisha,Bhadrak,Chandabali,phc,Dhamara,,20.79726,86.89781,Y,Rural,Public
Odisha,Jajapur,Jajpur,phc,Bahuan,,20.7994,86.26673,Y,Rural,Public
Odisha,Dhenkanal,Gondia,phc,Kendupada,,20.80075,85.69554,Y,Rural,Public
Odisha,Dhenkanal,Kamakhyanagar,phc,Sirimula,,20.80095,85.467,Y,Rural,Public
Odisha,Dhenkanal,Kamakhyanagar,phc,Kantiokateni,,20.80277,85.49964,Y,Rural,Public
Odisha,Sonapur,Tarva,phc,Pua,,20.80389,83.64951,Y,Rural,Public
Odisha,Jajapur,Rasalpur,phc,Haripurhat,,20.80559,86.23915,Y,Rural,Public
Odisha,Bhadrak,Chandabali,phc,Aradi,,20.81129,86.65816,Y,Rural,Public
Odisha,Jajapur,Dasarathpur,phc,Badakuanla,,20.812,86.3852,Y,Rural,Public
Odisha,Jajapur,Rasalpur,phc,Singapur,,20.81451,86.14167,Y,Rural,Public
Odisha,Dhenkanal,Gondia,phc,Pingua,,20.81604,85.9507,Y,Rural,Public
Odisha,Anugul,Athamallik,phc,Thakurgarh,,20.81783,84.63722,Y,Rural,Public
Odisha,Jajapur,Dasarathpur,phc,Radagaon,,20.82021,86.56532,Y,Rural,Public
Odisha,Bhadrak,Chandabali,phc,Dolamandap,,20.82278,86.74042,Y,Rural,Public
Odisha,Jajapur,Dharmasala,phc,Balisahi,,20.82585,86.08709,Y,Rural,Public
Odisha,Bargarh,Paikamal,phc,Jamseth,,20.82647,82.73182,Y,Rural,Public
Odisha,Nuapada,Nuapada,phc,Darlimunda,,20.82651,82.62914,Y,Rural,Public
Odisha,Anugul,Athamallik,phc,Paikasahi,,20.82687,84.75887,Y,Rural,Public
Odisha,Balangir,Khaprakhol,phc,Luhasingha,,20.82921,83.05061,Y,Rural,Public
Odisha,Dhenkanal,Kamakhyanagar,phc,Guneibili,,20.83004,85.6338,Y,Rural,Public
Odisha,Anugul,Banarapal,phc,Maratira,,20.83155,84.98,Y,Rural,Public
Odisha,Jajapur,Dharmasala,phc,Ramchandrapur,,20.8321,86.04077,Y,Rural,Public
Odisha,Sonapur,Tarva,phc,Menda,,20.83669,83.63801,Y,Rural,Public
Odisha,Bargarh,Paikamal,phc,Mandosil,,20.83818,82.70783,Y,Rural,Public
Odisha,Dhenkanal,Parjanga,phc,Kumusi,,20.84045,85.3843,Y,Rural,Public
Odisha,Sonapur,Sonepur,phc,Haradakhol,,20.84258,83.80215,Y,Rural,Public
Odisha,Balangir,Khaprakhol,phc,Harishankar,,20.84432,82.87806,Y,Rural,Public
Odisha,Balangir,Loisingha,phc,Kusang,,20.84627,83.41424,Y,Rural,Public
Odisha,Jajapur,Dasarathpur,phc,Ahiyas,,20.84791,86.50896,Y,Rural,Public
Odisha,Dhenkanal,Parjanga,phc,Patrapada (Lodhanichhaka),,20.84884,85.33578,Y,Rural,Public
Odisha,Baudh,Boudh,phc,Janhapank,,20.850066,84.2163,Y,Rural,Public
Odisha,Bhadrak,Chandabali,phc,Matto,,20.85087,86.76456,Y,Rural,Public
Odisha,Jajapur,Dharmasala,phc,Jenapur,,20.85597,86.07256,Y,Rural,Public
Odisha,Jajapur,Korei,phc,Masudpur,,20.85604,86.20882,Y,Rural,Public
Odisha,Dhenkanal,Gondia,phc,Karamul,,20.85699,85.75578,Y,Rural,Public
Odisha,Bhadrak,Dhamnagar,phc,Sohada,,20.85752,86.45637,Y,Rural,Public
Odisha,Balangir,Patnagarh,phc,Dangbahal,,20.85865,83.19894,Y,Rural,Public
Odisha,Bhadrak,Chandabali,phc,Madhapur,,20.85955,86.68587,Y,Rural,Public
Odisha,Jajapur,Dasarathpur,phc,Kamalpur,,20.86096,86.52229,Y,Rural,Public
Odisha,Jajapur,Sukinda,phc,Atta,,20.86534,85.93742,Y,Rural,Public
Odisha,Dhenkanal,Bhuban,phc,Mahulapal,,20.86649,85.88947,Y,Rural,Public
Odisha,Bhadrak,Dhamnagar,phc,Mahatabnagar,,20.86671,86.584,Y,Rural,Public
Odisha,Bhadrak,Dhamnagar,phc,Hasanabad,,20.86751,86.5294,Y,Rural,Public
Odisha,Dhenkanal,Bhuban,phc,Marthapur,,20.86776,85.72139,Y,Rural,Public
Odisha,Bhadrak,Chandabali,phc,Bansada,,20.86827,86.86222,Y,Rural,Public
Odisha,Anugul,Banarapal,phc,Badakerjeng,,20.86846,84.97339,Y,Rural,Public
Odisha,Bhadrak,Dhamnagar,phc,Balipatna,,20.86917,86.50278,Y,Rural,Public
Odisha,Bhadrak,Dhamnagar,phc,D Anandapur,,20.86999,86.39401,Y,Rural,Public
Odisha,Anugul,Banarapal,phc,Balaramprasad,,20.87109,85.17923,Y,Rural,Public
Odisha,Sonapur,Biramaharajpur,phc,Hariharjor,,20.87163,84.10548,Y,Rural,Public
Odisha,Jajapur,Dharmasala,phc,Kabatabandha,,20.87304,86.02485,Y,Rural,Public
Odisha,Bhadrak,Bhandaripokhari,phc,Biroli,,20.8751,86.37613,Y,Rural,Public
Odisha,Balangir,Loisingha,phc,Badimunda,,20.87598,83.37885,Y,Rural,Public
Odisha,Jajapur,Jajpur,phc,Adampur,,20.87662,86.27557,Y,Rural,Public
Odisha,Anugul,Chhendipada,phc,Jarpada,,20.88086,84.88895,Y,Rural,Public
Odisha,Bargarh,Padmapur,phc,BUDEN,,20.88378,83.03646,Y,Rural,Public
Odisha,Bhadrak,Dhamnagar,phc,Dhusuri,,20.88773,86.55646,Y,Rural,Public
Odisha,Jajapur,Sukinda,phc,Hatibari,,20.88807,85.95473,Y,Rural,Public
Odisha,Bhadrak,Dhamnagar,phc,Nadigaon,,20.88971,86.5144,Y,Rural,Public
Odisha,Jajapur,Rasalpur,phc,Laxminagar,,20.89627,86.14946,Y,Rural,Public
Odisha,Sonapur,Biramaharajpur,phc,Subalaya,,20.89655,84.16991,Y,Rural,Public
Odisha,Bhadrak,Dhamnagar,phc,Khadimahara,,20.89885,86.59842,Y,Rural,Public
Odisha,Bhadrak,Tihidi,phc,Tiadisahi,,20.89901,86.6669,Y,Rural,Public
Odisha,Bhadrak,Bhandaripokhari,phc,Rahania,,20.90301,86.36933,Y,Rural,Public
Odisha,Bhadrak,Chandabali,phc,Ghanteswar,,20.90399,86.80067,Y,Rural,Public
Odisha,Jajapur,Korei,phc,Panikoili,,20.90516,86.23651,Y,Rural,Public
Odisha,Bhadrak,Bhandaripokhari,phc,Jagannathprasad,,20.90752,86.30096,Y,Rural,Public
Odisha,Bargarh,Padmapur,phc,DAHITA,,20.90785,83.0659,Y,Rural,Public
Odisha,Anugul,Rajkishore Nagar,phc,Boinda,,20.91181,84.73514,Y,Rural,Public
Odisha,Nuapada,Nuapada,phc,Biromal,,20.91327,82.59702,Y,Rural,Public
Odisha,Jajapur,Barachana,phc,Chandikhol,,20.9137,86.14959,Y,Rural,Public
Odisha,Jajapur,Danagadi,phc,Rabana,,20.91394,86.05215,Y,Rural,Public
Odisha,Sonapur,Ullanda,phc,Jaloi,,20.91547,83.96709,Y,Rural,Public
Odisha,Sonapur,Biramaharajpur,phc,Mursundi,,20.91548,84.08904,Y,Rural,Public
Odisha,Balangir,Agalpur,phc,Bendra,,20.9189,83.54394,Y,Rural,Public
Odisha,Bhadrak,Dhamnagar,phc,Kothar,,20.92009,86.5246,Y,Rural,Public
Odisha,Bargarh,Paikamal,phc,Jhitiki,,20.92083,82.73177,Y,Rural,Public
Odisha,Bargarh,Paikamal,phc,Paikmal,,20.92237,82.81555,Y,Rural,Public
Odisha,Jajapur,Korei,phc,Sankhachila,,20.92393,86.2085,Y,Rural,Public
Odisha,Anugul,Rajkishore Nagar,phc,Angapada,,20.92991,84.56333,Y,Rural,Public
Odisha,Sonapur,Binka,phc,Mahadevpali,,20.93253,83.80091,Y,Rural,Public
Odisha,Jajapur,Danagadi,phc,Jakhapura,,20.933,86.06565,Y,Rural,Public
Odisha,Bhadrak,Tihidi,phc,Bodak,,20.93403,86.57307,Y,Rural,Public
Odisha,Sonapur,Sonepur,phc,Lachhipur,,20.93637,83.68613,Y,Rural,Public
Odisha,Dhenkanal,Bhuban,phc,Baruan,,20.94046,85.76959,Y,Rural,Public
Odisha,Dhenkanal,Parjanga,phc,Muktapasi,,20.94081,85.42033,Y,Rural,Public
Odisha,Bhadrak,Bhandaripokhari,phc,Barikpur,,20.94244,86.31905,Y,Rural,Public
Odisha,Bhadrak,Dhamnagar,phc,Asurali,,20.94427,86.52126,Y,Rural,Public
Odisha,Jajapur,Korei,phc,Dulakapatna,,20.95078,86.24183,Y,Rural,Public
Odisha,Sambalpur,Rairakhol,phc,Kadaligarh,,20.95107,84.31084,Y,Rural,Public
Odisha,Anugul,Rajkishore Nagar,phc,Handapa,,20.95134,84.69014,Y,Rural,Public
Odisha,Bargarh,Gaiselet,phc,Sardhapali,,20.95621,83.35617,Y,Rural,Public
Odisha,Bhadrak,Dhamnagar,phc,Sahid Nagar,,20.95876,86.54404,Y,Rural,Public
Odisha,Bargarh,Gaiselet,phc,Gaisilet,,20.9588,83.31453,Y,Rural,Public
Odisha,Bhadrak,Tihidi,phc,Bilana,,20.95908,86.58845,Y,Rural,Public
Odisha,Anugul,Talcher,phc,Kalamchhiun,,20.9598,85.06132,Y,Rural,Public
Odisha,Bhadrak,Dhamnagar,phc,Kavita Seva Sadan,,20.96344,86.47061,Y,Rural,Public
Odisha,Balangir,Agalpur,phc,Salevata,,20.96775,83.53829,Y,Rural,Public
Odisha,Dhenkanal,Bhuban,phc,Odisa,,20.97078,85.74537,Y,Rural,Public
Odisha,Anugul,Talcher,phc,Gopalprasad,,20.97134,85.0351,Y,Rural,Public
Odisha,Jajapur,Sukinda,phc,Kuhika,,20.97282,85.83957,Y,Rural,Public
Odisha,Bhadrak,Tihidi,phc,Pirhat,,20.97525,86.74617,Y,Rural,Public
Odisha,Bhadrak,Bhandaripokhari,phc,Manjuri,,20.97711,86.40812,Y,Rural,Public
Odisha,Bhadrak,Basudevpur,phc,Naikanidihi,,20.98138,86.81698,Y,Rural,Public
Odisha,Sonapur,Dunguripali,phc,Digsira,,20.98243,83.58064,Y,Rural,Public
Odisha,Balangir,Agalpur,phc,Duduka,,20.98397,83.48499,Y,Rural,Public
Odisha,Bhadrak,Bhadrak,phc,Arnapal,,20.98551,86.53208,Y,Rural,Public
Odisha,Anugul,Chhendipada,phc,Balipata,,20.98611,84.85714,Y,Rural,Public
Odisha,Bhadrak,Bhadrak,phc,Chunida,,20.98639,86.4968,Y,Rural,Public
Odisha,Sonapur,Binka,phc,Sankara,,20.99061,83.77252,Y,Rural,Public
Odisha,Balangir,Agalpur,phc,Roth,,20.99067,83.4286,Y,Rural,Public
Odisha,Jajapur,Sukinda,phc,Duburi,,20.99225,85.98197,Y,Rural,Public
Odisha,Sonapur,Dunguripali,phc,Sukha,,20.99408,83.50874,Y,Rural,Public
Odisha,Anugul,Talcher,phc,Kankili,,20.99526,85.24641,Y,Rural,Public
Odisha,Sonapur,Ullanda,phc,Kotsamalai,,21.00462,83.96136,Y,Rural,Public
Odisha,Bhadrak,Tihidi,phc,Guamala,,21.00628,86.58121,Y,Rural,Public
Odisha,Bhadrak,Bhandaripokhari,phc,Manjuri Road,,21.0082,86.31689,Y,Rural,Public
Odisha,Jajapur,Korei,phc,Baitarani Road,,21.00967,86.24042,Y,Rural,Public
Odisha,Bhadrak,Tihidi,phc,Bahabalpur,,21.01032,86.71381,Y,Rural,Public
Odisha,Sonapur,Dunguripali,phc,Bhimtikira,,21.01142,83.70493,Y,Rural,Public
Odisha,Bhadrak,Basudevpur,phc,Balimeda,,21.01805,86.75313,Y,Rural,Public
Odisha,Jajapur,Danagadi,phc,Barakhai,,21.01986,86.04241,Y,Rural,Public
Odisha,Bhadrak,Tihidi,phc,Alinagar,,21.02026,86.59608,Y,Rural,Public
Odisha,Dhenkanal,Parjanga,phc,Dadarghati,,21.02793,85.28704,Y,Rural,Public
Odisha,Nuapada,Nuapada,phc,Beltukri,,21.02817,82.64744,Y,Rural,Public
Odisha,Jajapur,Korei,phc,Pachhikot,,21.02844,86.14473,Y,Rural,Public
Odisha,Bhadrak,Bonth,phc,Kenduapada,,21.02957,86.38625,Y,Rural,Public
Odisha,Bhadrak,Bhadrak,phc,Bhadrakilisahi,,21.03842,86.53521,Y,Rural,Public
Odisha,Bargarh,Gaiselet,phc,Kermeli,,21.05239,83.26963,Y,Rural,Public
Odisha,Bhadrak,Bhadrak,phc,Purunabazar AH,,21.05343,86.51896,Y,Urban,Public
Odisha,Bhadrak,Bhadrak,phc,R N Eye Hospital,,21.0545,86.51068,Y,Rural,Public
Odisha,Keonjhar,Ghasipura,phc,Purunabandhagoda,,21.05786,86.06397,Y,Rural,Public
Odisha,Bargarh,Jharbandha,phc,Jharbandha,,21.05937,82.79594,Y,Rural,Public
Odisha,Bhadrak,Bhadrak,phc,Sabaranga,,21.06028,86.62234,Y,Rural,Public
Odisha,Bhadrak,Basudevpur,phc,Ertal,,21.06508,86.67489,Y,Rural,Public
Odisha,Keonjhar,Ghasipura,phc,Odapada,,21.06704,86.19774,Y,Rural,Public
Odisha,Dhenkanal,Kankadahad,phc,Mahabi Road,,21.06861,85.37799,Y,Rural,Public
Odisha,Dhenkanal,Kankadahad,phc,Kankadahada,,21.06962,85.5668,Y,Rural,Public
Odisha,Dhenkanal,Kankadahad,phc,Kantapal,,21.08005,85.52967,Y,Rural,Public
Odisha,Sonapur,Dunguripali,phc,Beheramal,,21.08178,83.60711,Y,Rural,Public
Odisha,Bargarh,Bijepur,phc,Laumunda,,21.08304,83.39004,Y,Rural,Public
Odisha,Anugul,Chhendipada,phc,Patrapada,,21.08305,84.7673,Y,Rural,Public
Odisha,Bargarh,Bijepur,phc,Saipali,,21.08332,83.45039,Y,Rural,Public
Odisha,Bargarh,Paikamal,phc,Lakhmara,,21.08618,83.02734,Y,Rural,Public
Odisha,Bargarh,Padmapur,phc,MELCHHAMUNDA,,21.08692,83.25418,Y,Rural,Public
Odisha,Sonapur,Ullanda,phc,Sindhol,,21.08727,83.8518,Y,Rural,Public
Odisha,Sonapur,Dunguripali,phc,Rampur,,21.09901,83.69378,Y,Rural,Public
Odisha,Anugul,Chhendipada,phc,Bagedia,,21.10557,84.8203,Y,Rural,Public
Odisha,Sambalpur,Rairakhol,phc,Badmal,,21.1082,84.07736,Y,Rural,Public
Odisha,Bargarh,Bheden,phc,Gandturam,,21.10964,83.84405,Y,Rural,Public
Odisha,Jajapur,Danagadi,phc,Gobardhanpur,,21.11454,86.01206,Y,Rural,Public
Odisha,Keonjhar,Hatadihi,phc,Orali,,21.12172,86.27818,Y,Rural,Public
Odisha,Keonjhar,Hatadihi,phc,Tukuna,,21.12198,86.226,Y,Rural,Public
Odisha,Bhadrak,Bonth,phc,Bonth,,21.1222,86.32225,Y,Rural,Public
Odisha,Bargarh,Bheden,phc,Sialkhandahata,,21.12272,83.80166,Y,Rural,Public
Odisha,Anugul,Kaniha,phc,Biru,,21.1238,85.18549,Y,Rural,Public
Odisha,Sonapur,Binka,phc,Bankigiridi,,21.12428,83.77055,Y,Rural,Public
Odisha,Bargarh,Jharbandha,phc,Jagdalpur,,21.12633,82.94293,Y,Rural,Public
Odisha,Bhadrak,Bhadrak,phc,Ambroli,,21.12723,86.46865,Y,Rural,Public
Odisha,Bhadrak,Bhadrak,phc,Ranital,,21.12926,86.55818,Y,Rural,Public
Odisha,Bhadrak,Bhadrak,phc,Kaupur,,21.13021,86.42673,Y,Rural,Public
Odisha,Keonjhar,Ghasipura,phc,Batto,,21.13084,86.18278,Y,Rural,Public
Odisha,Dhenkanal,Kankadahad,phc,Pangatira,,21.13303,85.35859,Y,Rural,Public
Odisha,Anugul,Kaniha,phc,Pabitranagar,,21.1337,85.16979,Y,Rural,Public
Odisha,Bargarh,Bijepur,phc,Kharmunda,,21.13452,83.4919,Y,Rural,Public
Odisha,Bargarh,Sohella,phc,Birjam,,21.13554,83.29614,Y,Rural,Public
Odisha,Bargarh,Bheden,phc,Resham,,21.1363,83.68578,Y,Rural,Public
Odisha,Bhadrak,Bonth,phc,Kadabarang,,21.14466,86.39944,Y,Rural,Public
Odisha,Bargarh,Barapali,phc,Satlama,,21.14497,83.61967,Y,Rural,Public
Odisha,Bhadrak,Basudevpur,phc,Barapur,,21.14522,86.69933,Y,Rural,Public
Odisha,Baleshwar,Simulia,phc,Kahneibindha,,21.14593,86.65587,Y,Rural,Public
Odisha,Keonjhar,Ghasipura,phc,Khalpal,,21.1468,85.96894,Y,Rural,Public
Odisha,Bhadrak,Basudevpur,phc,Eram,,21.15533,86.79174,Y,Rural,Public
Odisha,Keonjhar,Hatadihi,phc,Mugupur,,21.15698,86.2005,Y,Rural,Public
Odisha,Keonjhar,Ghasipura,phc,Deogaon,,21.16208,86.05002,Y,Rural,Public
Odisha,Keonjhar,Telkoi,phc,Raisuan,,21.16389,85.50448,Y,Rural,Public
Odisha,Keonjhar,Hatadihi,phc,Hatadihi,,21.1665,86.24457,Y,Rural,Public
Odisha,Baleshwar,Khaira,phc,Antara,,21.16771,86.48164,Y,Rural,Public
